Name,Country,Continent,Latitude,Longitude
Warīsān,AE,AS,25.16744,55.40708
Ras Al Khaimah,AE,AS,25.78953,55.9432
Dubai,AE,AS,25.07725,55.30927
Dayrah,AE,AS,25.27143,55.30207
Sharjah,AE,AS,25.3342,55.41221
Fujairah,AE,AS,25.11641,56.34141
Al Ain City,AE,AS,24.19167,55.76056
Ajman,AE,AS,25.40177,55.47878
Abu Dhabi,AE,AS,24.45118,54.39696
International City,AE,AS,25.16383,55.40987
Dubai Marina,AE,AS,25.08525,55.14646
Al Majaz,AE,AS,25.32354,55.38774
Dubai Investments Park,AE,AS,25.00827,55.15682
Jebel Ali,AE,AS,25.00255,55.10811
Musaffah,AE,AS,24.35893,54.48267
Business Bay,AE,AS,25.18544,55.26969
Mazār-e Sharīf,AF,AS,36.70904,67.11087
Kunduz,AF,AS,36.72895,68.857
Kandahār,AF,AS,31.61332,65.71013
Kabul,AF,AS,34.52813,69.17233
Jalālābād,AF,AS,34.42647,70.45153
Herāt,AF,AS,34.34817,62.19967
Ghazni,AF,AS,33.55391,68.42096
Gardez,AF,AS,33.59744,69.22592
Balkh,AF,AS,36.75635,66.8972
Baghlān,AF,AS,36.13068,68.70829
Elbasan,AL,EU,41.11138,20.08224
Vlorë,AL,EU,40.4696,19.48379
Tirana,AL,EU,41.32744,19.81866
Durrës,AL,EU,41.32355,19.45469
Yerevan,AM,AS,40.17765,44.5126
Gyumri,AM,AS,40.79305,43.84635
Erebuni,AM,AS,40.13309,44.53009
Nor Nork,AM,AS,40.19661,44.5669
Ajapnyak,AM,AS,40.19917,44.47056
Malatia-Sebastia,AM,AS,40.17396,44.4457
Kentron,AM,AS,40.17806,44.51303
Shengavit,AM,AS,40.1557,44.4779
Arabkir,AM,AS,40.20624,44.50365
Saurimo,AO,AF,-9.66078,20.39155
Lucapa,AO,AF,-8.41915,20.74466
Dundo,AO,AF,-7.36643,20.81557
Chitato,AO,AF,-7.3,20.73333
Uíge,AO,AF,-7.60874,15.06131
Soyo,AO,AF,-6.1349,12.36894
N'dalatando,AO,AF,-9.29782,14.91162
Mbanza Kongo,AO,AF,-6.26667,14.23833
Malanje,AO,AF,-9.54015,16.34096
Maianga,AO,AF,-8.82904,13.23097
Luanda,AO,AF,-8.83682,13.23432
Cabinda,AO,AF,-5.56198,12.19476
Cazenga,AO,AF,-8.82488,13.31318
Talatona,AO,AF,-8.91783,13.18562
Sumbe,AO,AF,-11.20605,13.84371
Ondjiva,AO,AF,-17.06667,15.73333
Mossamedes,AO,AF,-15.19611,12.15222
Menongue,AO,AF,-14.6585,17.69099
Luena,AO,AF,-11.78333,19.91667
Lubango,AO,AF,-14.91717,13.4925
Lobito,AO,AF,-12.3644,13.53601
Cuíto,AO,AF,-12.38333,16.93333
Huambo,AO,AF,-12.77611,15.73917
Gabela,AO,AF,-10.85147,14.37993
Caála,AO,AF,-12.8525,15.56056
Benguela,AO,AF,-12.57674,13.40268
Ingombota,AO,AF,-8.81806,13.22889
Rangel,AO,AF,-8.82644,13.26285
Sambizanga,AO,AF,-8.78883,13.27506
Villa Lugano,AR,SA,-34.67907,-58.47263
Tandil,AR,SA,-37.3287,-59.1369
San Justo,AR,SA,-34.68107,-58.56379
Resistencia,AR,SA,-27.46363,-58.98665
Quilmes,AR,SA,-34.72065,-58.25454
Posadas,AR,SA,-27.39184,-55.92379
Merlo,AR,SA,-34.66536,-58.72744
Mar del Plata,AR,SA,-38.00042,-57.5562
Lomas de Zamora,AR,SA,-34.7574,-58.40279
La Plata,AR,SA,-34.92126,-57.95442
Ituzaingó,AR,SA,-27.58504,-56.68707
Formosa,AR,SA,-26.18489,-58.17313
Corrientes,AR,SA,-27.46784,-58.8344
Concordia,AR,SA,-31.39195,-58.01706
Castelar,AR,SA,-34.65142,-58.64074
Buenos Aires,AR,SA,-34.61315,-58.37723
Berazategui,AR,SA,-34.76531,-58.21278
Belgrano,AR,SA,-34.5627,-58.45829
Santiago del Estero,AR,SA,-27.80047,-64.26285
Santa Rosa,AR,SA,-36.61617,-64.28991
Santa Fe,AR,SA,-31.64881,-60.70868
San Salvador de Jujuy,AR,SA,-24.1928,-65.29342
San Rafael,AR,SA,-34.61531,-68.33238
San Nicolás de los Arroyos,AR,SA,-33.33425,-60.2108
San Miguel de Tucumán,AR,SA,-26.81601,-65.21051
San Luis,AR,SA,-33.2914,-66.32467
San Juan,AR,SA,-31.53726,-68.52568
Catamarca,AR,SA,-28.46957,-65.78524
Salta,AR,SA,-24.80645,-65.41999
Rosario,AR,SA,-32.94682,-60.63932
Río Cuarto,AR,SA,-33.13044,-64.35272
Paraná,AR,SA,-31.73271,-60.52897
Neuquén,AR,SA,-38.95078,-68.0592
Mendoza,AR,SA,-32.88946,-68.84582
La Rioja,AR,SA,-29.41328,-66.85637
Córdoba,AR,SA,-31.40648,-64.18853
Comodoro Rivadavia,AR,SA,-45.86256,-67.494
Bahía Blanca,AR,SA,-38.7176,-62.26545
Balvanera,AR,SA,-34.61032,-58.39766
San Miguel,AR,SA,-34.54335,-58.71229
José C. Paz,AR,SA,-34.51541,-58.76813
Vienna,AT,EU,48.20849,16.37208
Simmering,AT,EU,48.18333,16.43333
Salzburg,AT,EU,47.79941,13.04399
Ottakring,AT,EU,48.21667,16.3
Linz,AT,EU,48.30639,14.28611
Klagenfurt am Wörthersee,AT,EU,46.62472,14.30528
Innsbruck,AT,EU,47.26266,11.39454
Graz,AT,EU,47.06733,15.44197
Floridsdorf,AT,EU,48.25,16.4
Favoriten,AT,EU,48.16116,16.38233
Donaustadt,AT,EU,48.2333,16.46002
Perth,AU,OC,-31.95224,115.8614
Darwin,AU,OC,-12.46113,130.84185
Adelaide,AU,OC,-34.92866,138.59863
Townsville,AU,OC,-19.26639,146.80569
Toowoomba,AU,OC,-27.56056,151.95386
Sydney,AU,OC,-33.86785,151.20732
Newcastle,AU,OC,-32.92953,151.7801
Melbourne,AU,OC,-37.814,144.96332
Mackay,AU,OC,-21.15345,149.16554
Hobart,AU,OC,-42.87936,147.32941
Gold Coast,AU,OC,-28.00029,153.43088
Geelong,AU,OC,-38.14711,144.36069
Wollongong,AU,OC,-34.424,150.89345
Canberra,AU,OC,-35.28346,149.12807
Cairns,AU,OC,-16.92366,145.76613
Brisbane,AU,OC,-27.46794,153.02809
Bendigo,AU,OC,-36.75818,144.28024
Ballarat,AU,OC,-37.56622,143.84957
Logan City,AU,OC,-27.63917,153.10944
Central Coast,AU,OC,-33.42979,151.37144
City of Port Phillip,AU,OC,-37.83382,144.93834
Sunshine Coast,AU,OC,-26.65682,153.07955
Lankaran,AZ,AS,38.75428,48.85062
Yevlakh,AZ,AS,40.61832,47.15014
Tovuz,AZ,AS,40.99249,45.62838
Sumqayıt,AZ,AS,40.58972,49.66861
Mingachevir,AZ,AS,40.76422,47.06227
Ganja,AZ,AS,40.68157,46.36134
Baku,AZ,AS,40.37767,49.89201
Zenica,BA,EU,44.20169,17.90397
Tuzla,BA,EU,44.53842,18.66709
Sarajevo,BA,EU,43.84864,18.35644
Mostar,BA,EU,43.34333,17.80806
Banja Luka,BA,EU,44.77879,17.20629
Tungi,BD,AS,23.89154,90.40232
Sylhet,BD,AS,24.89904,91.87198
Jamālpur,BD,AS,24.91965,89.94812
Shibganj,BD,AS,25.00146,89.32266
Sātkhira,BD,AS,22.70817,89.07185
Sirajganj,BD,AS,24.45771,89.70802
Narsingdi,BD,AS,23.92298,90.71768
Shāhzādpur,BD,AS,24.17687,89.5988
Rajshahi,BD,AS,24.374,88.60114
Nārāyanganj,BD,AS,23.61352,90.50298
Nāgarpur,BD,AS,24.05783,89.87696
Mymensingh,BD,AS,24.75636,90.40646
Comilla,BD,AS,23.46186,91.18503
Rangpur,BD,AS,25.74664,89.25166
Kushtia,BD,AS,23.9028,89.11943
Ramna Maidan,BD,AS,23.73333,90.4
Dhaka,BD,AS,23.7104,90.40744
Bhairab Bāzār,BD,AS,24.0524,90.9764
Bāndarban,BD,AS,22.19534,92.21946
Bagerhat,BD,AS,22.65657,89.79123
Sonārgaon,BD,AS,23.65,90.61667
Pār Naogaon,BD,AS,24.80418,88.94875
Nagar Naluākot,BD,AS,24.15608,90.7728
Mohāmmadpur,BD,AS,24.89843,88.52844
Maijdi,BD,AS,22.86667,91.1
Kāfrul,BD,AS,23.78822,90.37359
Gazipur,BD,AS,23.99844,90.42234
Farīdpur,BD,AS,23.60612,89.84064
Dinajpur,BD,AS,25.62745,88.63779
Chattogram,BD,AS,22.3384,91.83168
Chāndpur,BD,AS,23.22714,90.65433
Bhātāra,BD,AS,23.8,90.45
Āshuganj City,BD,AS,24.04016,91.0117
Cox’s Bāzār,BD,AS,21.43973,92.00955
Khulna,BD,AS,22.80979,89.56439
Barishal,BD,AS,22.70497,90.37013
Rāngāmāti,BD,AS,22.64317,92.19186
Jessore,BD,AS,23.16971,89.21371
Brāhmanbāria,BD,AS,23.97464,91.11228
Pābna,BD,AS,24.00644,89.2372
Tāngāil,BD,AS,24.24984,89.91655
Bogra,BD,AS,24.85098,89.37108
Nawābganj,BD,AS,24.59025,88.27444
Sherpur,BD,AS,25.01881,90.01751
Savar,BD,AS,23.84858,90.25002
Hāthazāri,BD,AS,22.50515,91.81339
Saidpur,BD,AS,25.77769,88.89169
Puthia,BD,AS,24.36537,88.83431
Natore,BD,AS,24.41112,88.98673
Pallabi,BD,AS,23.825,90.37
Karnaphuli,BD,AS,22.69056,92.23472
Paltan,BD,AS,23.73625,90.41426
Mirpur Model Thana,BD,AS,23.80931,90.36093
Schaerbeek,BE,EU,50.86935,4.37737
Namur,BE,EU,50.4669,4.86746
Liège,BE,EU,50.63373,5.56749
Leuven,BE,EU,50.87959,4.70093
Gent,BE,EU,51.05,3.71667
Charleroi,BE,EU,50.41136,4.44448
Brussels,BE,EU,50.85045,4.34878
Brugge,BE,EU,51.20892,3.22424
Antwerpen,BE,EU,51.22047,4.40026
Anderlecht,BE,EU,50.83619,4.31454
Saaba,BF,AF,12.37136,-1.41468
Ouahigouya,BF,AF,13.5769,-2.41786
Ouagadougou,BF,AF,12.36566,-1.53388
Koudougou,BF,AF,12.25188,-2.36694
Kaya,BF,AF,13.0883,-1.08368
Bobo-Dioulasso,BF,AF,11.18064,-4.29489
Banfora,BF,AF,10.64064,-4.75285
Varna,BG,EU,43.21912,27.91024
Stara Zagora,BG,EU,42.43205,25.64262
Sofia,BG,EU,42.69751,23.32415
Ruse,BG,EU,43.84872,25.9534
Plovdiv,BG,EU,42.15387,24.75001
Burgas,BG,EU,42.50651,27.46886
Madīnat Ḩamad,BH,AS,26.11528,50.50694
Al Muharraq,BH,AS,26.25722,50.61194
Manama,BH,AS,26.22787,50.58565
Ar Rifā‘,BH,AS,26.13,50.555
Bujumbura,BI,AF,-3.38193,29.36142
Porto-Novo,BJ,AF,6.49646,2.60359
Parakou,BJ,AF,9.33716,2.63031
Godomè,BJ,AF,6.38948,2.34581
Cotonou,BJ,AF,6.36536,2.41833
Abomey-Calavi,BJ,AF,6.44852,2.35566
Abomey,BJ,AF,7.18286,1.99119
Tarija,BO,SA,-21.53549,-64.72956
Sucre,BO,SA,-19.03332,-65.26274
Santa Cruz de la Sierra,BO,SA,-17.78629,-63.18117
Sacaba,BO,SA,-17.39799,-66.03825
Quillacollo,BO,SA,-17.39228,-66.27838
Potosí,BO,SA,-19.58361,-65.75306
Oruro,BO,SA,-17.97153,-67.0932
La Paz,BO,SA,-16.5,-68.15
Cochabamba,BO,SA,-17.38195,-66.15995
Vitória de Santo Antão,BR,SA,-8.11806,-35.29139
Timon,BR,SA,-5.09417,-42.83667
Teresina,BR,SA,-5.08917,-42.80194
Sobral,BR,SA,-3.68611,-40.34972
São Luís,BR,SA,-2.52972,-44.30278
São Lourenço da Mata,BR,SA,-8.00222,-35.01833
São José de Ribamar,BR,SA,-2.55572,-44.05992
São Gonçalo do Amarante,BR,SA,-5.79333,-35.32944
Santa Rita,BR,SA,-7.11389,-34.97806
Santarém,BR,SA,-2.44306,-54.70833
Recife,BR,SA,-8.05389,-34.88111
Santana,BR,SA,-0.03816,-51.17476
Petrolina,BR,SA,-9.39861,-40.50083
Paulo Afonso,BR,SA,-9.40611,-38.21472
Paulista,BR,SA,-7.94083,-34.87306
Parnamirim,BR,SA,-5.91556,-35.26278
Parnaíba,BR,SA,-2.90472,-41.77667
Parintins,BR,SA,-2.62833,-56.73583
Paragominas,BR,SA,-2.99565,-47.35488
Olinda,BR,SA,-8.00889,-34.85528
Natal,BR,SA,-5.795,-35.20944
Mossoró,BR,SA,-5.1875,-37.34417
Maranguape,BR,SA,-3.89083,-38.68556
Maracanaú,BR,SA,-3.87667,-38.62556
Marabá,BR,SA,-5.38146,-49.13232
Maceió,BR,SA,-9.66583,-35.73528
Macapá,BR,SA,0.03889,-51.06639
Juazeiro do Norte,BR,SA,-7.21306,-39.31528
Juazeiro,BR,SA,-9.41167,-40.49861
João Pessoa,BR,SA,-7.115,-34.86306
Jaboatão,BR,SA,-8.18028,-35.00139
Itacoatiara,BR,SA,-3.14306,-58.44417
Itapipoca,BR,SA,-3.49444,-39.57861
Itaituba,BR,SA,-4.27611,-55.98361
Ipojuca,BR,SA,-8.39889,-35.06389
Imperatriz,BR,SA,-5.52639,-47.49167
Igarassu,BR,SA,-7.83417,-34.90639
Garanhuns,BR,SA,-8.88202,-36.50216
Fortaleza,BR,SA,-3.71722,-38.54306
Crato,BR,SA,-7.23417,-39.40944
Codó,BR,SA,-4.45528,-43.88556
Caxias,BR,SA,-4.85889,-43.35611
Caucaia,BR,SA,-3.73611,-38.65306
Castanhal,BR,SA,-1.29389,-47.92639
Caruaru,BR,SA,-8.28333,-35.97611
Campina Grande,BR,SA,-7.23056,-35.88111
Cametá,BR,SA,-2.24444,-49.49583
Camaragibe,BR,SA,-8.02167,-34.98111
Cabo de Santo Agostinho,BR,SA,-8.28773,-35.02925
Breves,BR,SA,-1.68222,-50.48028
Bragança,BR,SA,-1.05361,-46.76556
Belém,BR,SA,-1.45583,-48.50444
Barcarena,BR,SA,-1.50583,-48.62583
Balsas,BR,SA,-7.5325,-46.03556
Bacabal,BR,SA,-4.23246,-44.78164
Arapiraca,BR,SA,-9.7525,-36.66111
Araguaína,BR,SA,-7.19111,-48.20722
Ananindeua,BR,SA,-1.36556,-48.37222
Altamira,BR,SA,-3.20333,-52.20639
Abreu e Lima,BR,SA,-7.91167,-34.90278
Abaetetuba,BR,SA,-1.71806,-48.8825
Votorantim,BR,SA,-23.54667,-47.43778
Volta Redonda,BR,SA,-22.52306,-44.10417
Vitória da Conquista,BR,SA,-14.86611,-40.83944
Vitória,BR,SA,-20.31944,-40.33778
Vila Velha,BR,SA,-20.32972,-40.2925
Vila Mariana,BR,SA,-23.58833,-46.63464
Vila Maria,BR,SA,-23.51408,-46.58625
Viamão,BR,SA,-30.08111,-51.02333
Vespasiano,BR,SA,-19.69194,-43.92333
Várzea Paulista,BR,SA,-23.21139,-46.82833
Várzea Grande,BR,SA,-15.64667,-56.1325
Varginha,BR,SA,-21.55139,-45.43028
Valinhos,BR,SA,-22.97056,-46.99583
Uruguaiana,BR,SA,-29.75472,-57.08833
Umuarama,BR,SA,-23.76639,-53.325
Uberlândia,BR,SA,-18.91861,-48.27722
Uberaba,BR,SA,-19.74833,-47.93194
Ubá,BR,SA,-21.12,-42.94278
Tubarão,BR,SA,-28.46667,-49.00694
Trindade,BR,SA,-16.64944,-49.48889
Toledo,BR,SA,-24.71361,-53.74306
Teresópolis,BR,SA,-22.4167,-42.97822
Teófilo Otoni,BR,SA,-17.8575,-41.50528
Taubaté,BR,SA,-23.02639,-45.55528
Tatuí,BR,SA,-23.35556,-47.85694
Taboão da Serra,BR,SA,-23.62611,-46.79167
Suzano,BR,SA,-23.5425,-46.31083
Sumaré,BR,SA,-22.82194,-47.26694
Sorocaba,BR,SA,-23.50167,-47.45806
Sete Lagoas,BR,SA,-19.46583,-44.24667
Sertãozinho,BR,SA,-21.13778,-47.99028
Serra,BR,SA,-20.12861,-40.30778
Senador Canedo,BR,SA,-16.70806,-49.09306
Sarandi,BR,SA,-23.44361,-51.87389
Sapucaia do Sul,BR,SA,-29.81782,-51.14551
São Vicente,BR,SA,-23.96306,-46.39194
São Pedro da Aldeia,BR,SA,-22.83917,-42.10278
São Paulo,BR,SA,-23.5475,-46.63611
São Mateus,BR,SA,-18.72011,-39.85891
São Leopoldo,BR,SA,-29.76028,-51.14722
São José dos Pinhais,BR,SA,-25.5302,-49.20836
São José dos Campos,BR,SA,-23.17944,-45.88694
São José do Rio Preto,BR,SA,-20.81972,-49.37944
São José,BR,SA,-28.21344,-49.16383
São José,BR,SA,-27.61528,-48.6275
São João de Meriti,BR,SA,-22.80389,-43.37222
São Carlos,BR,SA,-22.0175,-47.89083
São Caetano do Sul,BR,SA,-23.62306,-46.55111
São Bernardo do Campo,BR,SA,-23.69389,-46.565
Santos,BR,SA,-23.96083,-46.33361
Santo Antônio de Jesus,BR,SA,-12.96889,-39.26139
Santo André,BR,SA,-23.66389,-46.53833
Santana de Parnaíba,BR,SA,-23.44417,-46.91778
Santa Maria,BR,SA,-29.68417,-53.80694
Santa Luzia,BR,SA,-19.76972,-43.85139
Santa Cruz do Sul,BR,SA,-29.7175,-52.42583
Santa Bárbara d'Oeste,BR,SA,-22.75361,-47.41361
Salvador,BR,SA,-12.97563,-38.49096
Salto,BR,SA,-23.20083,-47.28694
Sabará,BR,SA,-19.88639,-43.80667
Rondonópolis,BR,SA,-16.47083,-54.63556
Rio Verde,BR,SA,-17.79806,-50.92806
Rio Grande,BR,SA,-32.035,-52.09861
Rio de Janeiro,BR,SA,-22.90642,-43.18223
Rio das Ostras,BR,SA,-22.52694,-41.945
Rio Claro,BR,SA,-22.41139,-47.56139
Ribeirão Preto,BR,SA,-21.1775,-47.81028
Ribeirão Pires,BR,SA,-23.71056,-46.41333
Ribeirão das Neves,BR,SA,-19.76694,-44.08667
Resende,BR,SA,-22.46889,-44.44667
Queimados,BR,SA,-22.71611,-43.55528
Presidente Prudente,BR,SA,-22.12556,-51.38889
Praia Grande,BR,SA,-24.00583,-46.40278
Pouso Alegre,BR,SA,-22.23,-45.93639
Porto Seguro,BR,SA,-16.44972,-39.06472
Porto Alegre,BR,SA,-30.03283,-51.23019
Ponta Grossa,BR,SA,-25.095,-50.16194
Poços de Caldas,BR,SA,-21.78778,-46.56139
Poá,BR,SA,-23.52806,-46.34472
Planaltina,BR,SA,-15.45278,-47.61417
Piraquara,BR,SA,-25.44227,-49.06795
Piracicaba,BR,SA,-22.72528,-47.64917
Pindamonhangaba,BR,SA,-22.92389,-45.46167
Petrópolis,BR,SA,-22.505,-43.17861
Pelotas,BR,SA,-31.76997,-52.34101
Paulínia,BR,SA,-22.76111,-47.15417
Patos de Minas,BR,SA,-18.57889,-46.51806
Passos,BR,SA,-20.71889,-46.60972
Passo Fundo,BR,SA,-28.26278,-52.40667
Alvorada,BR,SA,-30.00018,-51.07632
Parelheiros,BR,SA,-23.8275,-46.72694
Paranaguá,BR,SA,-25.51626,-48.52537
Palhoça,BR,SA,-27.64528,-48.66778
Ourinhos,BR,SA,-22.97889,-49.87056
Osasco,BR,SA,-23.5325,-46.79167
Novo Hamburgo,BR,SA,-29.67833,-51.13056
Nova Serrana,BR,SA,-19.87611,-44.98361
Nova Lima,BR,SA,-19.98556,-43.84667
Nova Iguaçu,BR,SA,-22.75917,-43.45111
Nova Friburgo,BR,SA,-22.28194,-42.53111
Nossa Senhora do Socorro,BR,SA,-10.855,-37.12611
Freguesia do Ó,BR,SA,-23.49877,-46.69983
Niterói,BR,SA,-22.88333,-43.10361
Nilópolis,BR,SA,-22.8075,-43.41389
Muriaé,BR,SA,-21.13056,-42.36639
Montes Claros,BR,SA,-16.735,-43.86167
Mogi Guaçu,BR,SA,-22.3677,-46.94552
Mogi das Cruzes,BR,SA,-23.52278,-46.18833
Mauá,BR,SA,-23.66778,-46.46139
Maringá,BR,SA,-23.42528,-51.93861
Marília,BR,SA,-22.21389,-49.94583
Maricá,BR,SA,-22.91944,-42.81861
Mairiporã,BR,SA,-23.31861,-46.58667
Magé,BR,SA,-22.65278,-43.04056
Macaé,BR,SA,-22.38484,-41.78324
Luziânia,BR,SA,-16.2525,-47.95028
Londrina,BR,SA,-23.31028,-51.16278
Linhares,BR,SA,-19.39111,-40.07222
Limeira,BR,SA,-22.56472,-47.40167
Lavras,BR,SA,-21.24528,-44.99972
Lages,BR,SA,-27.81611,-50.32611
Lagarto,BR,SA,-10.91722,-37.65
Jundiaí,BR,SA,-23.18639,-46.88417
Juiz de Fora,BR,SA,-21.76417,-43.35028
Joinville,BR,SA,-26.30444,-48.84556
Jequié,BR,SA,-13.85875,-40.08512
Jaú,BR,SA,-22.29639,-48.55778
Jataí,BR,SA,-17.87939,-51.72166
Jaraguá do Sul,BR,SA,-26.48611,-49.06667
Jaraguá,BR,SA,-23.44077,-46.73774
Japeri,BR,SA,-22.64306,-43.65333
Jandira,BR,SA,-23.5275,-46.9025
Jacareí,BR,SA,-23.30528,-45.96583
Ituiutaba,BR,SA,-18.97428,-49.46212
Itu,BR,SA,-23.26417,-47.29917
Itatiba,BR,SA,-23.00583,-46.83889
Itaquera,BR,SA,-23.53194,-46.44417
Itaquaquecetuba,BR,SA,-23.48611,-46.34833
Itapevi,BR,SA,-23.54889,-46.93417
Itapetininga,BR,SA,-23.59167,-48.05306
Itaperuna,BR,SA,-21.205,-41.88778
Itapecerica da Serra,BR,SA,-23.71694,-46.84917
Itanhaém,BR,SA,-24.18306,-46.78889
Itajaí,BR,SA,-26.90778,-48.66194
Itaguaí,BR,SA,-22.85222,-43.77528
Itabuna,BR,SA,-14.78556,-39.28028
Itaboraí,BR,SA,-22.74444,-42.85944
Itabira,BR,SA,-19.61917,-43.22694
Itabaiana,BR,SA,-10.685,-37.42528
Ipiranga,BR,SA,-23.59957,-46.61599
Ipatinga,BR,SA,-19.46833,-42.53667
Indaiatuba,BR,SA,-23.08842,-47.2119
Ilhéus,BR,SA,-14.79909,-39.03228
Ibirité,BR,SA,-20.02194,-44.05889
Hortolândia,BR,SA,-22.85833,-47.22
Guarulhos,BR,SA,-23.46278,-46.53333
Guarujá,BR,SA,-23.99306,-46.25639
Guaratinguetá,BR,SA,-22.81639,-45.1925
Guarapuava,BR,SA,-25.39048,-51.46541
Guarapari,BR,SA,-20.67182,-40.50196
Guará,BR,SA,-15.80976,-47.97202
Guaianases,BR,SA,-23.54333,-46.41083
Gravataí,BR,SA,-29.94218,-50.99278
Governador Valadares,BR,SA,-18.85111,-41.94944
Goiânia,BR,SA,-16.67861,-49.25389
Gama,BR,SA,-16.02511,-48.07121
Franco da Rocha,BR,SA,-23.32167,-46.72694
Francisco Morato,BR,SA,-23.28167,-46.74528
Franca,BR,SA,-20.53861,-47.40083
Foz do Iguaçu,BR,SA,-25.54778,-54.58806
Formosa,BR,SA,-15.53722,-47.33444
Florianópolis,BR,SA,-27.59667,-48.54917
Ferraz de Vasconcelos,BR,SA,-23.54083,-46.36861
Feira de Santana,BR,SA,-12.26667,-38.96667
Eunápolis,BR,SA,-16.3775,-39.58028
Embu das Artes,BR,SA,-23.64889,-46.85222
Duque de Caxias,BR,SA,-22.78556,-43.31167
Dourados,BR,SA,-22.22111,-54.80556
Divinópolis,BR,SA,-20.14355,-44.89065
Diadema,BR,SA,-23.68611,-46.62278
Curitiba,BR,SA,-25.42778,-49.27306
Cuiabá,BR,SA,-15.59611,-56.09667
Cubatão,BR,SA,-23.895,-46.42528
Criciúma,BR,SA,-28.6775,-49.36972
Cotia,BR,SA,-23.60389,-46.91917
Coronel Fabriciano,BR,SA,-19.51861,-42.62889
Contagem,BR,SA,-19.93167,-44.05361
Conselheiro Lafaiete,BR,SA,-20.66028,-43.78611
Colombo,BR,SA,-25.29167,-49.22417
Colatina,BR,SA,-19.53944,-40.63056
Chapecó,BR,SA,-27.09639,-52.61833
Ceilândia,BR,SA,-15.8091,-48.13096
Caxias do Sul,BR,SA,-29.16806,-51.17944
Catanduva,BR,SA,-21.13778,-48.97278
Catalão,BR,SA,-18.16583,-47.94639
Cascavel,BR,SA,-24.95583,-53.45528
Cariacica,BR,SA,-20.26389,-40.42
Carapicuíba,BR,SA,-23.52272,-46.835
Caraguatatuba,BR,SA,-23.62028,-45.41306
Canoas,BR,SA,-29.91778,-51.18361
Campos dos Goytacazes,BR,SA,-21.75227,-41.33044
Campo Limpo,BR,SA,-23.63634,-46.76565
Campo Largo,BR,SA,-25.45955,-49.53014
Campo Grande,BR,SA,-20.44278,-54.64639
Campinas,BR,SA,-22.90556,-47.06083
Cambé,BR,SA,-23.27583,-51.27833
Camaçari,BR,SA,-12.6975,-38.32417
Caieiras,BR,SA,-23.36417,-46.74056
Cachoeiro de Itapemirim,BR,SA,-20.84889,-41.11278
Cachoeirinha,BR,SA,-29.95111,-51.09389
Cabo Frio,BR,SA,-22.88717,-42.02622
Brusque,BR,SA,-27.09795,-48.91281
Brasília,BR,SA,-15.77972,-47.92972
Bragança Paulista,BR,SA,-22.9527,-46.54418
Botucatu,BR,SA,-22.88583,-48.445
Blumenau,BR,SA,-26.91944,-49.06611
Birigui,BR,SA,-21.28861,-50.34
Betim,BR,SA,-19.96778,-44.19833
Bento Gonçalves,BR,SA,-29.17139,-51.51917
Belo Horizonte,BR,SA,-19.92083,-43.93778
Belford Roxo,BR,SA,-22.76417,-43.39944
Bauru,BR,SA,-22.31472,-49.06056
Barueri,BR,SA,-23.51056,-46.87611
Barretos,BR,SA,-20.55722,-48.56778
Barreiras,BR,SA,-12.15278,-44.99
Barra Mansa,BR,SA,-22.54417,-44.17139
Barbacena,BR,SA,-21.22583,-43.77361
Balneário Camboriú,BR,SA,-26.99056,-48.63472
Atibaia,BR,SA,-23.11694,-46.55028
Assis,BR,SA,-22.66167,-50.41222
Araxá,BR,SA,-19.59333,-46.94056
Araucária,BR,SA,-25.59306,-49.41028
Araruama,BR,SA,-22.87278,-42.34306
Araras,BR,SA,-22.35694,-47.38417
Araraquara,BR,SA,-21.79444,-48.17556
Arapongas,BR,SA,-23.41944,-51.42444
Araguari,BR,SA,-18.64722,-48.18722
Araçatuba,BR,SA,-21.20889,-50.43278
Aracaju,BR,SA,-10.91111,-37.07167
Apucarana,BR,SA,-23.55083,-51.46083
Angra dos Reis,BR,SA,-23.00667,-44.31806
Anápolis,BR,SA,-16.32667,-48.95278
Americana,BR,SA,-22.73917,-47.33139
Almirante Tamandaré,BR,SA,-25.32472,-49.31
Alagoinhas,BR,SA,-12.13556,-38.41917
Palmas,BR,SA,-10.16745,-48.32766
Rio Branco,BR,SA,-9.97472,-67.81
Porto Velho,BR,SA,-8.76194,-63.90389
Manaus,BR,SA,-3.10194,-60.025
Manacapuru,BR,SA,-3.29972,-60.62056
Boa Vista,BR,SA,2.81972,-60.67333
Ji Paraná,BR,SA,-10.88528,-61.95167
Açailândia,BR,SA,-4.94667,-47.50472
Águas Lindas de Goiás,BR,SA,-15.76194,-48.28167
Aparecida de Goiânia,BR,SA,-16.82333,-49.24389
Ermelino Matarazzo,BR,SA,-23.49472,-46.47389
Fazenda Rio Grande,BR,SA,-25.6575,-49.30806
Itaim Paulista,BR,SA,-23.50308,-46.38566
Jaboatão dos Guararapes,BR,SA,-8.11278,-35.01472
Lauro de Freitas,BR,SA,-12.89444,-38.32722
Marituba,BR,SA,-1.35528,-48.34194
Novo Gama,BR,SA,-16.05917,-48.03944
Paço do Lumiar,BR,SA,-2.53222,-44.1075
Parauapebas,BR,SA,-6.0675,-49.90222
Pinhais,BR,SA,-25.44472,-49.1925
São Mateus,BR,SA,-23.60583,-46.47889
Sapopemba,BR,SA,-23.59556,-46.52472
Simões Filho,BR,SA,-12.78444,-38.40389
Sinop,BR,SA,-11.86417,-55.5025
Sorriso,BR,SA,-12.54528,-55.71139
Tangará da Serra,BR,SA,-14.61944,-57.48583
Valparaíso de Goiás,BR,SA,-16.06583,-47.97861
Taguatinga,BR,SA,-15.83326,-48.05506
Pirituba,BR,SA,-23.48982,-46.7322
Santana,BR,SA,-23.49032,-46.6387
Pôr do Sol,BR,SA,-15.85502,-48.12433
Itaim Bibi,BR,SA,-23.58581,-46.68241
Planaltina,BR,SA,-15.61791,-47.64874
Luis Eduardo Magalhães,BR,SA,-12.09086,-45.78501
Grajaú,BR,SA,-23.76979,-46.67112
Artur Alvim,BR,SA,-23.54015,-46.48581
Cidade Dutra,BR,SA,-23.72576,-46.7024
Capao Redondo,BR,SA,-23.66877,-46.78051
Iguatemi,BR,SA,-23.61277,-46.42667
Sao Lucas,BR,SA,-23.59468,-46.54359
Rio Pequeno,BR,SA,-23.57139,-46.75887
Cidade Lider,BR,SA,-23.56202,-46.4913
Lajeado,BR,SA,-23.53361,-46.40866
Jabaquara,BR,SA,-23.65055,-46.64591
Jose Bonifacio,BR,SA,-23.56742,-46.43264
Cidade Ademar,BR,SA,-23.67379,-46.65681
Brasilandia,BR,SA,-23.44859,-46.68839
Butanta,BR,SA,-23.5702,-46.72628
Campo Grande,BR,SA,-23.67463,-46.68751
Cangaiba,BR,SA,-23.49696,-46.52045
Cursino,BR,SA,-23.63143,-46.62072
Vila Prudente,BR,SA,-23.59255,-46.57278
Pedreira,BR,SA,-23.70675,-46.64982
Mandaqui,BR,SA,-23.45947,-46.64086
Cachoeirinha,BR,SA,-23.45442,-46.66209
Jardim Angela,BR,SA,-23.71636,-46.76872
Vila Jacui,BR,SA,-23.50262,-46.46156
Vila Matilde,BR,SA,-23.53936,-46.51788
Vila Medeiros,BR,SA,-23.48874,-46.57762
Perdizes,BR,SA,-23.53872,-46.68093
Raposo Tavares,BR,SA,-23.59245,-46.78561
Cidade Tiradentes,BR,SA,-23.58481,-46.40084
Jardim Helena,BR,SA,-23.4837,-46.41309
Jardim Sao Luis,BR,SA,-23.68073,-46.7394
Sacomã,BR,SA,-23.63083,-46.59817
Sao Rafael,BR,SA,-23.62821,-46.45395
Vila Andrade,BR,SA,-23.62623,-46.72828
Vila Curuca,BR,SA,-23.51,-46.41566
Bosque Saúde,BR,SA,-23.60926,-46.62304
Bairro da Penha,BR,SA,-23.3684,-46.31102
Santa Maria,BR,SA,-16.03095,-48.02929
Riacho Fundo II,BR,SA,-15.8981,-48.04671
Samambaia,BR,SA,-15.88231,-48.10428
Águas Claras,BR,SA,-15.83969,-48.02675
Recanto das Emas,BR,SA,-15.90864,-48.06447
Plano Piloto,BR,SA,-15.79411,-47.8825
Nassau,BS,NA,25.05823,-77.34306
Gaborone,BW,AF,-24.65451,25.90859
Francistown,BW,AF,-21.17,27.50778
Vitebsk,BY,EU,55.1904,30.2049
Pinsk,BY,EU,52.12153,26.06726
Orsha,BY,EU,54.51362,30.40365
Minsk,BY,EU,53.90019,27.56653
Mazyr,BY,EU,52.04162,29.21631
Mahilyow,BY,EU,53.90876,30.34044
Lida,BY,EU,53.88333,25.29972
Hrodna,BY,EU,53.6758,23.82887
Homyel',BY,EU,52.4345,30.9754
Brest,BY,EU,52.10894,23.71749
Barysaw,BY,EU,54.2279,28.505
Baranovichi,BY,EU,53.13253,26.00774
Bobruysk,BY,EU,53.14636,29.20552
Abbotsford,CA,NA,49.05798,-122.25257
Ahuntsic-Cartierville,CA,NA,45.56667,-73.66667
Ajax,CA,NA,43.85012,-79.03288
Barrie,CA,NA,44.40011,-79.66634
Brampton,CA,NA,43.68341,-79.76633
Brantford,CA,NA,43.1334,-80.26636
Burlington,CA,NA,43.38621,-79.83713
Burnaby,CA,NA,49.26636,-122.95263
Calgary,CA,NA,51.05011,-114.08529
Cambridge,CA,NA,43.3601,-80.31269
Chilliwack,CA,NA,49.16638,-121.95257
Coquitlam,CA,NA,49.2846,-122.78217
Dartmouth,CA,NA,44.67134,-63.57719
Delta,CA,NA,49.14399,-122.9068
Edmonton,CA,NA,53.55014,-113.46871
Etobicoke,CA,NA,43.64415,-79.56985
Gatineau,CA,NA,45.47723,-75.70164
Gloucester,CA,NA,45.35,-75.63333
Greater Sudbury,CA,NA,46.49,-80.99001
Guelph,CA,NA,43.54594,-80.25599
Hamilton,CA,NA,43.25011,-79.84963
Kamloops,CA,NA,50.66648,-120.3192
Kelowna,CA,NA,49.88307,-119.48568
Kingston,CA,NA,44.22976,-76.48098
Kitchener,CA,NA,43.42537,-80.5112
Langley,CA,NA,49.10107,-122.65883
Laval,CA,NA,45.56995,-73.692
Lethbridge,CA,NA,49.69999,-112.81856
London,CA,NA,42.98339,-81.23304
Longueuil,CA,NA,45.5152,-73.46818
Markham,CA,NA,43.86682,-79.2663
Milton,CA,NA,43.51681,-79.88294
Mississauga,CA,NA,43.5789,-79.6583
Montréal,CA,NA,45.50884,-73.58781
Nepean,CA,NA,45.33619,-75.7225
Newton,CA,NA,49.13333,-122.85
Oakville,CA,NA,43.45011,-79.68292
Oshawa,CA,NA,43.90012,-78.84957
Ottawa,CA,NA,45.41117,-75.69812
Ottawa South,CA,NA,45.3921,-75.68725
Red Deer,CA,NA,52.26682,-113.802
Regina,CA,NA,50.45008,-104.6178
Richmond,CA,NA,49.17003,-123.13683
Richmond Hill,CA,NA,43.87111,-79.43725
Saanich,CA,NA,48.54964,-123.36931
Saguenay,CA,NA,48.41675,-71.06573
Saskatoon,CA,NA,52.13238,-106.66892
Sherbrooke,CA,NA,45.40008,-71.89908
St. Catharines,CA,NA,43.17126,-79.24267
Surrey,CA,NA,49.10635,-122.82509
Terrebonne,CA,NA,45.70004,-73.64732
Thunder Bay,CA,NA,48.38202,-89.25018
Toronto,CA,NA,43.70643,-79.39864
Trois-Rivières,CA,NA,46.34515,-72.5477
Vancouver,CA,NA,49.24966,-123.11934
Vaughan,CA,NA,43.8361,-79.49827
Victoria,CA,NA,48.4359,-123.35155
Waterloo,CA,NA,43.4668,-80.51639
Whalley,CA,NA,49.17917,-122.86667
Whitby,CA,NA,43.88342,-78.93287
Windsor,CA,NA,42.30008,-83.01654
Winnipeg,CA,NA,49.8844,-97.14704
Halifax,CA,NA,44.64269,-63.57688
St. John's,CA,NA,47.56494,-52.70931
Québec,CA,NA,46.81228,-71.21454
Lévis,CA,NA,46.80326,-71.17793
Sydney,CA,NA,46.1351,-60.1831
Orléans,CA,NA,45.45732,-75.50433
Le Plateau-Mont-Royal,CA,NA,45.52833,-73.58081
Ville-Marie,CA,NA,45.49899,-73.57046
Mercier–Hochelaga-Maisonneuve,CA,NA,45.57194,-73.54626
Rivière-des-Prairies–Pointe-aux-Trembles,CA,NA,45.64064,-73.58463
Rosemont–La Petite-Patrie,CA,NA,45.53661,-73.60686
Villeray–Saint-Michel–Parc-Extension,CA,NA,45.55869,-73.60535
Le Vieux-Longueuil,CA,NA,45.53721,-73.50773
Uvira,CD,AF,-3.39534,29.13779
Tshikapa,CD,AF,-6.41621,20.79995
Mwene-Ditu,CD,AF,-7.00906,23.45278
Mbuji-Mayi,CD,AF,-6.13603,23.58979
Lisala,CD,AF,2.15127,21.51672
Kisangani,CD,AF,0.51528,25.19099
Kindu,CD,AF,-2.94373,25.92237
Kananga,CD,AF,-5.89624,22.41659
Kamina,CD,AF,-8.73508,24.99798
Kalemie,CD,AF,-5.94749,29.19471
Kabinda,CD,AF,-6.13791,24.48179
Isiro,CD,AF,2.77391,27.61603
Ilebo,CD,AF,-4.33111,20.58638
Goma,CD,AF,-1.67409,29.22845
Gandajika,CD,AF,-6.74504,23.95328
Butembo,CD,AF,0.14164,29.29117
Bunia,CD,AF,1.55941,30.25224
Bumba,CD,AF,2.18771,22.46827
Bukavu,CD,AF,-2.49077,28.84281
Bukama,CD,AF,-9.20443,25.85475
Beni,CD,AF,0.49113,29.47306
Bakwa,CD,AF,4.1263,27.39527
Tshilenge,CD,AF,-10.96667,22.9
Lubumbashi,CD,AF,-11.66089,27.47938
Likasi,CD,AF,-10.98303,26.7384
Kolwezi,CD,AF,-10.71484,25.46674
Kipushi,CD,AF,-11.76097,27.25135
Moanda,CD,AF,-5.92753,12.37148
Mbanza-Ngungu,CD,AF,-5.25837,14.85838
Mbandaka,CD,AF,0.04865,18.26034
Matadi,CD,AF,-5.83861,13.46306
Kinshasa,CD,AF,-4.32758,15.31357
Kikwit,CD,AF,-5.04098,18.81619
Inkisi,CD,AF,-5.13122,15.0541
Gemena,CD,AF,3.25651,19.77234
Boma,CD,AF,-5.85098,13.05364
Bandundu Province,CD,AF,-3.31687,17.38063
Masina,CD,AF,-4.38361,15.39139
Mwene,CD,AF,-9.81697,22.87023
Carnot,CF,AF,4.94273,15.87735
Bimbo,CF,AF,4.25671,18.41583
Berbérati,CF,AF,4.26116,15.79216
Bégoua,CF,AF,4.45437,18.53475
Bangui,CF,AF,4.36122,18.55496
Pointe-Noire,CG,AF,-4.77609,11.86352
Dolisie,CG,AF,-4.19834,12.66664
Brazzaville,CG,AF,-4.26613,15.28318
Nkayi,CG,AF,-4.18396,13.2859
Zürich,CH,EU,47.36667,8.55
Winterthur,CH,EU,47.50564,8.72413
Lausanne,CH,EU,46.516,6.63282
Genève,CH,EU,46.20222,6.14569
Bern,CH,EU,46.94809,7.44744
Basel,CH,EU,47.55839,7.57327
Yamoussoukro,CI,AF,6.82055,-5.27674
Sinfra,CI,AF,6.62103,-5.91144
San-Pédro,CI,AF,4.74851,-6.6363
Man,CI,AF,7.41251,-7.55383
Koumassi,CI,AF,5.29716,-3.96753
Korhogo,CI,AF,9.45803,-5.62961
Gagnoa,CI,AF,6.13193,-5.9506
Duekoué,CI,AF,6.74202,-7.34918
Divo,CI,AF,5.83739,-5.35723
Daoukro,CI,AF,7.0591,-3.9631
Daloa,CI,AF,6.87735,-6.45022
Dabou,CI,AF,5.32556,-4.37685
Bouaké,CI,AF,7.69385,-5.03031
Bouaflé,CI,AF,6.99041,-5.7442
Bondoukou,CI,AF,8.0402,-2.80003
Anyama,CI,AF,5.49462,-4.05183
Abobo,CI,AF,5.41613,-4.0159
Abidjan,CI,AF,5.35444,-4.00167
Abengourou,CI,AF,6.72972,-3.49639
Marcory,CI,AF,5.31198,-3.99363
Séguéla,CI,AF,7.96111,-6.67306
Soubré,CI,AF,5.78377,-6.59388
Bonon,CI,AF,6.9268,-6.0489
Viña del Mar,CL,SA,-33.02457,-71.55183
Valparaíso,CL,SA,-33.036,-71.62963
Valdivia,CL,SA,-39.81422,-73.24589
Temuco,CL,SA,-38.73628,-72.59738
Talcahuano,CL,SA,-36.72494,-73.11684
Talca,CL,SA,-35.4232,-71.64974
Santiago,CL,SA,-33.45694,-70.64827
San Bernardo,CL,SA,-33.59217,-70.6996
Renca,CL,SA,-33.4019,-70.70619
Rancagua,CL,SA,-34.1691,-70.74053
Quilpué,CL,SA,-33.04752,-71.44249
Quilicura,CL,SA,-33.36799,-70.71388
Punta Arenas,CL,SA,-53.16282,-70.90922
Puerto Montt,CL,SA,-41.4693,-72.94237
Puente Alto,CL,SA,-33.61169,-70.57577
Peñalolén,CL,SA,-33.46836,-70.53411
Osorno,CL,SA,-40.57395,-73.13348
Ñuñoa,CL,SA,-33.44735,-70.58279
Maipú,CL,SA,-33.51421,-70.7651
Los Ángeles,CL,SA,-37.46973,-72.35366
La Serena,CL,SA,-29.90591,-71.25014
Lampa,CL,SA,-33.2863,-70.87561
Iquique,CL,SA,-20.21326,-70.15027
Curicó,CL,SA,-34.98279,-71.23943
Coronel,CL,SA,-37.03386,-73.14019
Coquimbo,CL,SA,-29.95332,-71.33947
Copiapó,CL,SA,-27.36737,-70.33219
Concepción,CL,SA,-36.82699,-73.04977
Colina,CL,SA,-33.20443,-70.67474
Chillán,CL,SA,-36.60664,-72.10344
Calama,CL,SA,-22.45667,-68.92371
Arica,CL,SA,-18.47552,-70.30058
Antofagasta,CL,SA,-23.65094,-70.39752
Alto Hospicio,CL,SA,-20.26871,-70.1049
San Pedro de la Paz,CL,SA,-36.83897,-73.10028
La Pintana,CL,SA,-33.58331,-70.63419
Lo Prado,CL,SA,-33.4443,-70.72552
Villa Mercedes,CL,SA,-37.40421,-71.97949
Yaoundé,CM,AF,3.86667,11.51667
Nkongsamba,CM,AF,4.9547,9.9404
Ngaoundéré,CM,AF,7.32765,13.58472
Maroua,CM,AF,10.59095,14.31593
Limbe,CM,AF,4.02356,9.20607
Kumbo,CM,AF,6.2,10.66667
Kumba,CM,AF,4.6363,9.4469
Kousséri,CM,AF,12.07689,15.03063
Foumban,CM,AF,5.72662,10.89865
Edéa,CM,AF,3.8,10.13333
Ébolowa,CM,AF,2.9,11.15
Douala,CM,AF,4.04827,9.70428
Buea,CM,AF,4.15342,9.24231
Bertoua,CM,AF,4.57728,13.68459
Bamenda,CM,AF,5.9597,10.14597
Bafoussam,CM,AF,5.47775,10.41759
Tengyue,CN,AS,24.99492,98.51276
Jiuquan,CN,AS,39.74318,98.51736
Shache,CN,AS,38.41667,77.24056
Mengmao,CN,AS,24.00139,97.86499
Lhasa,CN,AS,29.65,91.1
Kashgar,CN,AS,39.46718,75.98675
Jiayuguan,CN,AS,39.81121,98.28618
Gujangbagh,CN,AS,37.10927,79.93433
Yushu,CN,AS,33.00118,97.00893
Baoshan,CN,AS,25.11626,99.16366
Artux,CN,AS,39.70842,76.17971
Xinyuan,CN,AS,43.42649,83.24959
Wujiaqu,CN,AS,44.16279,87.52174
Ürümqi,CN,AS,43.80096,87.60046
Turpan,CN,AS,42.94769,89.17886
Tacheng,CN,AS,46.74535,82.95847
Shihezi,CN,AS,44.3023,86.03694
Xincheng,CN,AS,41.71497,82.93249
Korla,CN,AS,41.76055,86.15231
Karamay,CN,AS,45.58473,84.88724
Ghulja,CN,AS,43.91515,81.32151
Hami,CN,AS,42.83393,93.50601
Dunhuang,CN,AS,40.16667,94.68333
Changji,CN,AS,44.00782,87.30461
Ālā'ĕr,CN,AS,40.54184,81.26566
Jinshanlu,CN,AS,47.8505,88.13286
Aqsu,CN,AS,41.18418,80.27921
Zunyi,CN,AS,27.68667,106.90722
Zoucheng,CN,AS,35.40056,116.96556
Ziyang,CN,AS,30.12108,104.64811
Zitong,CN,AS,30.1782,105.82991
Zigong,CN,AS,29.34162,104.77689
Zhuzhou,CN,AS,27.83333,113.15
Zhumadian,CN,AS,32.97944,114.02944
Shangqiu,CN,AS,34.45,115.65
Zhuji,CN,AS,29.71877,120.24233
Zhucheng,CN,AS,35.99472,119.3975
Zhoukou,CN,AS,33.63333,114.63333
Zhoucun,CN,AS,36.81667,117.81667
Yuxi,CN,AS,24.355,102.54222
Zhonghe,CN,AS,28.45049,108.98901
Zhicheng,CN,AS,30.29556,111.50472
Zhenzhou,CN,AS,32.28034,119.16999
Zhenping,CN,AS,33.03457,112.22763
Zhenjiang,CN,AS,32.21086,119.45508
Zhengzhou,CN,AS,34.75778,113.64861
Zhengding,CN,AS,38.14501,114.56556
Xinghua,CN,AS,32.93917,119.83417
Zhaotong,CN,AS,27.31667,103.71667
Zhaoqing,CN,AS,23.04893,112.46091
Zhaoyuan,CN,AS,37.36497,120.40997
Zhanjiang,CN,AS,21.23391,110.38749
Zhangzhou,CN,AS,24.51333,117.65556
Zhangye,CN,AS,38.93417,100.45167
Zibo,CN,AS,36.79056,118.06333
Anyang,CN,AS,36.096,114.38278
Zhabei,CN,AS,31.25861,121.45972
Zaozhuang,CN,AS,34.86472,117.55417
Zaoyang,CN,AS,32.12722,112.75417
Yuyao,CN,AS,30.05,121.14944
Kunshan,CN,AS,31.37762,120.95431
Jinghong,CN,AS,22.00265,100.7697
Pizhou,CN,AS,34.31139,117.95028
Yunfu,CN,AS,22.92787,112.03809
Yuncheng,CN,AS,35.02306,110.99278
Yulin,CN,AS,22.6305,110.14686
Yuci,CN,AS,37.68028,112.73194
Qianjiang,CN,AS,30.421,112.8919
Heyuan,CN,AS,23.73333,114.68333
Yongzhou,CN,AS,26.42389,111.61306
Yongchuan,CN,AS,29.35376,105.89392
Yong’an,CN,AS,31.01894,109.45949
Zhongxiang,CN,AS,31.16611,112.58306
Yingtan,CN,AS,28.23333,117
Chengzhong,CN,AS,30.94454,113.55284
Yinchuan,CN,AS,38.46806,106.27306
Qingzhou,CN,AS,36.69667,118.47972
Yichun,CN,AS,27.83333,114.4
Yixing,CN,AS,31.36059,119.82016
Yichang,CN,AS,30.71444,111.28472
Yibin,CN,AS,28.7593,104.63994
Yezhou,CN,AS,30.60369,109.72333
Yanzhou,CN,AS,35.55278,116.82861
Yantai,CN,AS,37.47649,121.44081
Yangzhou,CN,AS,32.39722,119.43583
Yangshuo,CN,AS,24.78081,110.48967
Zhangjiagang,CN,AS,31.865,120.53889
Yangquan,CN,AS,37.8575,113.56333
Yancheng,CN,AS,33.3575,120.1573
Yan’an,CN,AS,36.59889,109.49167
Ya'an,CN,AS,29.98521,102.999
Tongshan,CN,AS,34.18045,117.15707
Xuyong,CN,AS,28.16992,105.43452
Shangrao,CN,AS,28.45179,117.94287
Xunchang,CN,AS,28.45433,104.71498
Xuchang,CN,AS,34.03189,113.86299
Xuancheng,CN,AS,30.9525,118.75528
Xiuying,CN,AS,20.00073,110.29359
Xiulin,CN,AS,29.71667,112.4
Xinzhou,CN,AS,38.40917,112.73333
Xinzhai,CN,AS,36.4,118.61667
Xinyu,CN,AS,27.80429,114.93335
Xinyang,CN,AS,32.12278,114.06556
Xinxiang,CN,AS,35.19033,113.80151
Xintai,CN,AS,35.90056,117.75194
Xinji,CN,AS,37.92595,115.21907
Xining,CN,AS,36.62554,101.75739
Xingtai,CN,AS,37.06217,114.49272
Ankang,CN,AS,32.68,109.01722
Xindi,CN,AS,29.81667,113.46667
Xinyi,CN,AS,34.38424,118.34617
Sanshui,CN,AS,23.15486,112.89161
Xigang,CN,AS,38.55258,106.34805
Xichang,CN,AS,27.89642,102.26341
Xiazhen,CN,AS,34.80222,117.11167
Jinfeng,CN,AS,28.2385,116.60054
Xiaogan,CN,AS,30.92689,113.92221
Xianyang,CN,AS,34.33778,108.70261
Xiantao,CN,AS,30.3708,113.44294
Xianning,CN,AS,29.84347,114.32201
Zhuhai,CN,AS,22.27694,113.56778
Xiangcheng,CN,AS,25.46687,100.56248
Xiangtan,CN,AS,27.85,112.9
Xiangyang,CN,AS,32.0422,112.14479
Xi’an,CN,AS,34.25833,108.92861
Xiamen,CN,AS,24.47979,118.08187
Wuzhou,CN,AS,23.48054,111.28848
Wuxue,CN,AS,29.85058,115.5525
Wushan,CN,AS,31.07749,109.87639
Wuxi,CN,AS,31.56887,120.28857
Dongyang,CN,AS,29.26778,120.22528
Changde,CN,AS,29.03205,111.69844
Wuhu,CN,AS,31.35259,118.42947
Wuhan,CN,AS,30.58333,114.26667
Wuhai,CN,AS,39.68442,106.81583
Wugang,CN,AS,26.7279,110.63198
Wuda,CN,AS,39.49944,106.71167
Wenzhou,CN,AS,27.99942,120.66682
Tianfu,CN,AS,37.26366,122.05228
Wenchang,CN,AS,19.55158,110.80279
Weinan,CN,AS,34.50355,109.50891
Weihai,CN,AS,37.50914,122.11356
Weifang,CN,AS,36.71,119.10194
Wayaobu,CN,AS,37.13611,109.65972
Wanxian,CN,AS,30.81601,108.37407
Wansheng,CN,AS,28.9629,106.92844
Wanning,CN,AS,18.79931,110.3841
Wafangdian,CN,AS,39.61833,122.00806
Huangshan,CN,AS,29.71139,118.3125
Tongzhou,CN,AS,39.90395,116.66183
Fuding,CN,AS,27.32734,120.21399
Tongling,CN,AS,30.95,117.78333
Tianshui,CN,AS,34.57952,105.74238
Tianjin,CN,AS,39.14222,117.17667
Chengtangcun,CN,AS,35.08357,117.19071
Taozhou,CN,AS,30.90641,119.40865
Tangshan,CN,AS,39.64381,118.18319
Binhe,CN,AS,32.68833,112.8275
Tanggu,CN,AS,39.02111,117.64694
Taizhou,CN,AS,32.49069,119.90812
Taiyuan,CN,AS,37.86944,112.56028
Taishan,CN,AS,22.25135,112.7799
Taicang,CN,AS,31.44778,121.09389
Tai’an,CN,AS,36.18528,117.12
Suzhou,CN,AS,33.63611,116.97889
Suqian,CN,AS,33.94917,118.29583
Suizhou,CN,AS,31.71111,113.36306
Suicheng,CN,AS,33.8963,117.93307
Suining,CN,AS,30.50802,105.57332
Songjiang,CN,AS,31.03443,121.22326
Songcheng,CN,AS,26.88194,120.00111
Simao,CN,AS,22.78863,100.97481
Shuizhai,CN,AS,23.92961,115.76499
Laixi,CN,AS,36.85917,120.52694
Shouguang,CN,AS,36.88,118.7375
Huinong,CN,AS,39.23333,106.76944
Shiyan,CN,AS,32.6475,110.77806
Shiqiao,CN,AS,22.9464,113.35769
Shiqi,CN,AS,22.51682,113.38521
Shilong,CN,AS,23.11444,113.84722
Tongchuanshi,CN,AS,35.07474,109.08495
Shijiazhuang,CN,AS,38.04139,114.47861
Shenzhen,CN,AS,22.54554,114.0683
Shaping,CN,AS,22.77019,112.95776
Shaoxing,CN,AS,30.00237,120.57864
Shaowu,CN,AS,27.34089,117.4831
Shaoshan,CN,AS,27.91667,112.51667
Shaoguan,CN,AS,24.8,113.58333
Shanwei,CN,AS,22.78199,115.3475
Shantou,CN,AS,23.35489,116.67876
Shangluo,CN,AS,33.86667,109.93056
Shanghai,CN,AS,31.22222,121.45806
Shajing,CN,AS,22.74628,113.81903
Shahecheng,CN,AS,36.93833,114.50583
Sanya,CN,AS,18.25435,109.50947
Sanming,CN,AS,26.24861,117.61861
Sanmenxia,CN,AS,34.78081,111.19287
Sanhe,CN,AS,39.98049,117.06887
Changsha,CN,AS,22.38124,112.68492
Rui’an,CN,AS,27.77605,120.65859
Tongren,CN,AS,35.51483,102.016
Jieyang,CN,AS,23.5418,116.36581
Quzhou,CN,AS,28.95944,118.86861
Qujing,CN,AS,25.48333,103.78333
Quanzhou,CN,AS,24.91389,118.58583
Qinzhou,CN,AS,21.98247,108.65061
Qinhuangdao,CN,AS,39.94104,119.58936
Yizhou,CN,AS,24.5,108.66667
Jinjiang,CN,AS,24.81978,118.57415
Huai'an,CN,AS,33.58861,119.01917
Qingdao,CN,AS,36.06488,120.38042
Qingyuan,CN,AS,23.7,113.03333
Qiaotou,CN,AS,36.935,101.67361
Puyang Chengguanzhen,CN,AS,35.70622,115.0279
Puyang,CN,AS,29.45679,119.88872
Putian,CN,AS,25.43944,119.01028
Puqi,CN,AS,29.71667,113.88333
Pulandian,CN,AS,39.39528,121.96694
Pingxiang,CN,AS,27.61672,113.85353
Pingxiang,CN,AS,22.09694,106.75667
Pingshan,CN,AS,22.99376,114.71311
Pingliang,CN,AS,35.53917,106.68611
Pingdu,CN,AS,36.78444,119.94639
Pingdingshan,CN,AS,33.73091,113.31554
Pengze,CN,AS,29.89885,116.54572
Pengpu,CN,AS,31.2855,121.4367
Peicheng,CN,AS,34.73611,116.92472
Guang’an,CN,AS,30.47413,106.63696
Ning’er,CN,AS,23.04053,101.03683
Ningbo,CN,AS,29.87819,121.54945
Nianbo,CN,AS,36.48,102.41639
Neijiang,CN,AS,29.58354,105.06216
Nanyang,CN,AS,32.99472,112.53278
Nantong,CN,AS,32.03028,120.87472
Nanping,CN,AS,26.645,118.17361
Nanning,CN,AS,22.81667,108.31667
Nanjing,CN,AS,32.06167,118.77778
Nancun,CN,AS,36.53278,120.13389
Nanchong,CN,AS,30.79508,106.08473
Nanchang,CN,AS,28.68396,115.85306
Nanbin,CN,AS,29.9994,108.10913
Nada,CN,AS,19.52134,109.57895
Mingshui,CN,AS,36.71667,117.5
Mianyang,CN,AS,31.46784,104.68168
Mentougou,CN,AS,39.93819,116.09307
Meizhou,CN,AS,24.28859,116.11768
Meishan,CN,AS,30.04392,103.83696
Wuchuan,CN,AS,21.45713,110.76591
Maoming,CN,AS,21.66625,110.91364
Majie,CN,AS,25.0319,102.638
Macheng,CN,AS,31.18013,115.02213
Maba,CN,AS,24.68413,113.59839
Ma’anshan,CN,AS,31.68579,118.51008
Luzhou,CN,AS,28.8903,105.42575
Luoyang,CN,AS,34.67345,112.43684
Luoyang,CN,AS,23.16244,114.27342
Luojiang,CN,AS,31.30497,104.50484
Luohe,CN,AS,33.56394,114.04272
Luancheng,CN,AS,37.88452,114.64629
Lu’an,CN,AS,31.73561,116.51688
Loudi,CN,AS,27.73444,111.99444
Longyan,CN,AS,25.07485,117.01775
Longshui,CN,AS,29.56555,105.76205
Longgang,CN,AS,22.72289,114.26326
Guankou,CN,AS,28.15861,113.62709
Puning,CN,AS,23.31072,116.16869
Lishui,CN,AS,28.46042,119.91029
Liuzhou,CN,AS,24.32405,109.40698
Linyi,CN,AS,35.06306,118.34278
Linxia Chengguanzhen,CN,AS,35.60028,103.20639
Linxi,CN,AS,39.71183,118.44954
Linshui,CN,AS,36.42472,114.20472
Linqu,CN,AS,36.51556,118.53972
Qingnian,CN,AS,36.84092,115.71087
Beiliu,CN,AS,22.70722,110.34917
Linfen,CN,AS,36.08889,111.51889
Lincang,CN,AS,23.87972,100.09455
Lichuan,CN,AS,30.3,108.85
Licheng,CN,AS,23.29549,113.82465
Liaocheng,CN,AS,36.45064,116.00247
Hepu,CN,AS,21.65921,109.20011
Anning,CN,AS,24.92271,102.48496
Wuwei,CN,AS,37.92672,102.63202
Lianjiang,CN,AS,21.64673,110.28172
Leshan,CN,AS,29.56227,103.76386
Lengshuijiang,CN,AS,27.68806,111.42944
Leiyang,CN,AS,26.40238,112.85908
Lecheng,CN,AS,25.128,113.35041
Laohekou,CN,AS,32.38583,111.66778
Lanzhou,CN,AS,36.05701,103.83987
Langfang,CN,AS,39.52079,116.71471
Laizhou,CN,AS,37.18073,119.94217
Laiyang,CN,AS,36.97583,120.71361
Laiwu,CN,AS,36.19278,117.65694
Laibin,CN,AS,23.74743,109.22222
Kunming,CN,AS,25.03889,102.71833
Kaiyuan,CN,AS,23.69767,103.30372
Kaili,CN,AS,26.58583,107.97972
Kaifeng,CN,AS,34.7986,114.30742
Jiyuan,CN,AS,35.08912,112.58815
Jizhou,CN,AS,37.55054,115.56871
Jiujiang,CN,AS,29.70475,116.00206
Jishou,CN,AS,28.31925,109.73346
Jinzhou,CN,AS,39.1,121.71667
Jining,CN,AS,35.405,116.58139
Jinhua,CN,AS,29.10678,119.64421
Jingzhou,CN,AS,30.35028,112.19028
Jingzhi,CN,AS,36.31,119.3875
Jingmen,CN,AS,31.03361,112.20472
Jingling,CN,AS,30.65,113.1
Jingdezhen,CN,AS,29.2947,117.20789
Jing’an,CN,AS,22.21072,113.29218
Jinchang,CN,AS,38.50062,102.19379
Jincheng,CN,AS,35.50222,112.83278
Jinan,CN,AS,36.66833,116.99722
Jijiang,CN,AS,29.28993,106.25001
Jieshou,CN,AS,33.26338,115.36108
Jieshi,CN,AS,22.81027,115.83058
Jiazi,CN,AS,22.87932,116.07318
Jiaxing,CN,AS,30.7522,120.75
Jiawang,CN,AS,34.43278,117.44194
Jiaozuo,CN,AS,35.23925,113.23914
Jiaozhou,CN,AS,36.28389,120.00333
Ningde,CN,AS,26.66167,119.52278
Jiangmen,CN,AS,22.58333,113.08333
Yangjiang,CN,AS,21.85563,111.96272
Jianchang,CN,AS,27.55831,116.63978
Ji’an,CN,AS,27.11716,114.97927
Guangyuan,CN,AS,32.44201,105.823
Qionghai,CN,AS,19.2425,110.46417
Huzhou,CN,AS,30.8703,120.0933
Cixi,CN,AS,30.1764,121.2457
Humen,CN,AS,22.81899,113.67306
Huizhou,CN,AS,23.11147,114.41523
Huicheng,CN,AS,23.03845,116.28988
Huayin,CN,AS,34.56528,110.06639
Huangzhou,CN,AS,30.45,114.8
Huangshi,CN,AS,30.24706,115.04814
Dasha,CN,AS,23.11037,113.4418
Huanggang,CN,AS,23.67704,116.99961
Daxing,CN,AS,39.74025,116.32693
Xingyi,CN,AS,25.09617,104.90639
Huainan,CN,AS,32.62639,116.99694
Huaihua,CN,AS,27.56337,110.00404
Huaibei,CN,AS,33.97444,116.79167
Huacheng,CN,AS,24.06703,115.61309
Heze,CN,AS,35.23929,115.47358
Hechuan,CN,AS,29.99228,106.26461
Heshan,CN,AS,28.56938,112.34733
Hepo,CN,AS,23.43077,115.82991
Hengyang,CN,AS,26.88946,112.61888
Hengshui,CN,AS,37.73908,115.68348
Hejiang,CN,AS,28.81161,105.83359
Hefei,CN,AS,31.86389,117.28083
Hebi,CN,AS,35.73231,114.28616
Hanzhong,CN,AS,33.07507,107.02214
Fu’an,CN,AS,27.09131,119.64446
Hanjia,CN,AS,29.29524,108.16132
Hangzhou,CN,AS,30.29365,120.16142
Hangu,CN,AS,39.24889,117.78917
Hanfeng,CN,AS,31.16946,108.4031
Changzhi,CN,AS,36.18389,113.10528
Handan,CN,AS,36.60999,114.48764
Jiaojiang,CN,AS,28.69844,121.47331
Haimen,CN,AS,23.19346,116.61219
Haikou,CN,AS,24.77985,102.57548
Haikou,CN,AS,20.03421,110.34651
Guyuan,CN,AS,36.00667,106.28083
Gunan,CN,AS,29.0231,106.648
Gulin,CN,AS,28.04223,105.81038
Guli,CN,AS,28.88162,120.03308
Guiyang,CN,AS,26.58333,106.71667
Guixi,CN,AS,30.33355,107.34545
Guilin,CN,AS,25.28022,110.29639
Guigang,CN,AS,23.11603,109.59472
Guangzhou,CN,AS,23.11667,113.25
Guangshui,CN,AS,31.6199,113.9978
Gejiu,CN,AS,23.36085,103.15372
Gaozhou,CN,AS,21.91965,110.85678
Gaoping,CN,AS,30.77576,106.10294
Gaomi,CN,AS,36.38333,119.75278
Ganzhou,CN,AS,25.84664,114.9326
Gangu Chengguanzhen,CN,AS,34.73564,105.32632
Fuzhou,CN,AS,27.95999,116.33333
Fuzhou,CN,AS,26.06139,119.30611
Fuyang,CN,AS,32.9,115.81667
Fuling,CN,AS,29.70997,107.39391
Fuji,CN,AS,29.14819,105.37391
Foshan,CN,AS,23.02677,113.13148
Fengcheng,CN,AS,34.70388,116.58717
Ezhou,CN,AS,30.4,114.83333
Enshi,CN,AS,30.3,109.48333
Encheng,CN,AS,22.18659,112.30424
Duyun,CN,AS,26.26667,107.51667
Dongying,CN,AS,37.46271,118.49165
Dongtai,CN,AS,32.85231,120.30947
Donghai,CN,AS,22.94593,115.64204
Dongguan,CN,AS,23.01797,113.74866
Dingzhou,CN,AS,38.51473,114.9868
Dingxi,CN,AS,35.57088,104.62303
Dezhou,CN,AS,37.44661,116.36706
Deyang,CN,AS,31.13019,104.38198
Dengzhou,CN,AS,32.68273,112.08873
Zhangjiajie,CN,AS,29.12944,110.47833
Daye,CN,AS,30.08333,114.95
Lijiang,CN,AS,26.86879,100.22072
Dazhou,CN,AS,31.2106,107.46308
Dawukou,CN,AS,39.04194,106.39583
Datun,CN,AS,34.80923,116.90174
Danshui,CN,AS,22.7984,114.46716
Daliang,CN,AS,22.84067,113.2503
Dalian,CN,AS,38.91222,121.60222
Dali,CN,AS,25.58474,100.21229
Chuzhou,CN,AS,32.32194,118.29778
Chuxiong,CN,AS,25.03639,101.54556
Yangchun,CN,AS,22.16667,111.78333
Yiwu,CN,AS,29.31506,120.07676
Chongqing,CN,AS,29.56026,106.55771
Chóngfú,CN,AS,30.53113,120.4309
Chizhou,CN,AS,30.66134,117.47783
Chenzhou,CN,AS,25.8,113.03333
Jiangyin,CN,AS,31.91102,120.26302
Chenggu,CN,AS,33.14917,107.32583
Chengdu,CN,AS,30.66667,104.06667
Chenghua,CN,AS,23.46132,116.77007
Chaozhou,CN,AS,23.65396,116.62262
Chaohu,CN,AS,31.6,117.86667
Changzhou,CN,AS,31.77359,119.95401
Changzhi,CN,AS,35.20889,111.73861
Changyuan,CN,AS,29.40499,105.58827
Changyi,CN,AS,36.85361,119.39083
Changsha,CN,AS,28.19874,112.97087
Changle,CN,AS,36.70583,118.8275
Cangzhou,CN,AS,38.31124,116.85334
Buhe,CN,AS,30.28757,112.22979
Bozhou,CN,AS,33.87722,115.77028
Boshan,CN,AS,36.48333,117.83333
Baise,CN,AS,23.89013,106.62684
Bishan,CN,AS,29.59491,106.22476
Binzhou,CN,AS,37.36667,118.01667
Bijie,CN,AS,27.30193,105.28627
Bengbu,CN,AS,32.94083,117.36083
Beijing,CN,AS,39.9075,116.39723
Beihai,CN,AS,21.48349,109.11549
Beibei,CN,AS,29.82739,106.43645
Basuo,CN,AS,19.10267,108.66565
Bashan,CN,AS,27.76823,116.05017
Shaoyang,CN,AS,27.23818,111.46214
Baoding,CN,AS,38.87288,115.46246
Baiyin,CN,AS,36.54696,104.17023
Baisha,CN,AS,29.06226,106.1189
Shangyu,CN,AS,30.01556,120.87111
Bachuan,CN,AS,29.84863,106.05046
Anshun,CN,AS,26.25,105.93333
Anqiu,CN,AS,36.43417,119.1925
Anqing,CN,AS,30.51365,117.04723
Anliu,CN,AS,23.69824,115.67953
Anbu,CN,AS,23.44895,116.68092
Jiangyou,CN,AS,31.76667,104.71667
Suzhou,CN,AS,31.30408,120.59538
Zhoushan,CN,AS,29.98869,122.20488
Banan,CN,AS,29.37861,106.54
Nantou,CN,AS,22.72171,113.29261
Tanzhou,CN,AS,22.25503,113.46692
Wuzhishan,CN,AS,18.78229,109.5013
Shijie,CN,AS,23.09546,113.79195
Lianghu,CN,AS,29.99152,120.89845
Wuyishan,CN,AS,27.75995,118.03066
Yueyang,CN,AS,29.37455,113.09481
Hedong,CN,AS,23.9196,115.7801
Zhaozhou,CN,AS,45.70595,125.26606
Zhaodong,CN,AS,46.05223,125.9552
Zhangjiakou,CN,AS,40.78341,114.87139
Zhalantun,CN,AS,48.00945,122.73651
Yushu,CN,AS,44.82751,126.54063
Yingkou,CN,AS,40.66472,122.23176
Yichun,CN,AS,47.72143,128.87529
Yanji,CN,AS,42.88825,129.50241
Yakeshi,CN,AS,49.28333,120.73333
Xuanhua,CN,AS,40.61205,115.06463
Xilin Hot,CN,AS,43.96667,116.03333
Ulanhot,CN,AS,46.08333,122.08333
Tongliao,CN,AS,43.6125,122.26528
Tonghua,CN,AS,41.71972,125.92639
Tieling,CN,AS,42.29306,123.84139
Tieli,CN,AS,46.97544,128.04804
Taonan,CN,AS,45.33319,122.78464
Sujiatun,CN,AS,41.65917,123.33917
Suihua,CN,AS,46.64814,126.96656
Siping,CN,AS,43.16143,124.37785
Shunyi,CN,AS,40.12175,116.64783
Shuangyashan,CN,AS,46.67686,131.13273
Shuangcheng,CN,AS,45.3798,126.30711
Shenyang,CN,AS,41.79222,123.43278
Shanhaiguan,CN,AS,40.00119,119.75395
Shangzhi,CN,AS,45.20562,128.00242
Salaqi,CN,AS,40.54139,110.51083
Fendou,CN,AS,46.64142,124.86283
Qitaihe,CN,AS,45.768,130.9953
Qiqihar,CN,AS,47.33922,123.96154
Songyuan,CN,AS,45.12902,124.82769
Panshan,CN,AS,41.18806,122.04944
Nehe,CN,AS,48.4793,124.87016
Nanpiao,CN,AS,41.09822,120.74792
Lianhe,CN,AS,47.13333,129.27426
Mudanjiang,CN,AS,44.54804,129.62594
Longjing,CN,AS,42.77131,129.42307
Longjiang,CN,AS,47.33601,123.196
Longfeng,CN,AS,46.53168,125.1038
Longshan,CN,AS,42.88545,125.1367
Liaoyang,CN,AS,41.27194,123.17306
Kaiyuan,CN,AS,42.53306,124.04028
Jixi,CN,AS,45.29322,130.96217
Jiutai,CN,AS,44.15127,125.82975
Jiupu,CN,AS,41.06667,122.95
Jishu,CN,AS,44.31667,126.8
Jinzhou,CN,AS,41.10778,121.14167
Lianshan,CN,AS,40.76432,120.85327
Jining,CN,AS,41.0275,113.10583
Jilin,CN,AS,43.84652,126.5608
Jiaohe,CN,AS,43.72133,127.33473
Jiamusi,CN,AS,46.79711,130.31118
Jalai Nur,CN,AS,49.45,117.7
Jiagedaqi,CN,AS,50.41667,124.11667
Huludao,CN,AS,40.75243,120.83552
Hulan Ergi,CN,AS,47.20417,123.63333
Hulan,CN,AS,45.89326,126.57836
Huadian,CN,AS,42.97213,126.74107
Honggang,CN,AS,46.3974,124.88447
Hohhot,CN,AS,40.81056,111.65222
Hengshan,CN,AS,45.20837,130.89808
Heihe,CN,AS,50.24413,127.49016
Hegang,CN,AS,47.34727,130.29033
Harbin,CN,AS,45.75,126.65
Hailun,CN,AS,47.44663,126.92475
Hailin,CN,AS,44.57149,129.38539
Hailar,CN,AS,49.2,119.7
Haicheng,CN,AS,40.85158,122.74754
Beining,CN,AS,41.59556,121.79278
Gongzhuling,CN,AS,43.50075,124.81979
Fuyu,CN,AS,45.18333,124.81667
Fuxin,CN,AS,42.01556,121.65889
Fushun,CN,AS,41.88669,123.94363
Fengcheng,CN,AS,40.45361,124.07167
Dunhua,CN,AS,43.36954,128.22861
Dongling,CN,AS,41.81444,123.57583
Didao,CN,AS,45.34725,130.83693
Dehui,CN,AS,44.53674,125.69427
Datong,CN,AS,40.09361,113.29139
Daqing,CN,AS,46.58333,125
Dandong,CN,AS,40.12917,124.39472
Chifeng,CN,AS,42.26833,118.96361
Chengde,CN,AS,40.9519,117.95883
Chaoyang,CN,AS,41.57028,120.45861
Changchun,CN,AS,43.88,125.32278
Benxi,CN,AS,41.28861,123.765
Beipiao,CN,AS,41.79194,120.77917
Bei’an,CN,AS,48.26667,126.6
Baotou,CN,AS,40.6516,109.84389
Baoshan,CN,AS,46.57472,131.39318
Baicheng,CN,AS,45.61751,122.83302
Baishan,CN,AS,41.93853,126.41965
Anshan,CN,AS,41.12361,122.99
Anda,CN,AS,46.44867,125.30161
Aihui,CN,AS,49.97946,127.48119
Acheng,CN,AS,45.54558,126.95191
Doilungdêqên,CN,AS,29.65505,90.99177
E’zhou,CN,AS,30.39607,114.88655
Shuifu,CN,AS,28.63215,104.40783
Panzhihua,CN,AS,26.58509,101.71276
Gongheyong,CN,AS,22.75923,113.79452
Tantou,CN,AS,22.75121,113.83496
Zhongshan,CN,AS,22.52306,113.37912
Tongchuan,CN,AS,34.8988,108.95056
Changshu,CN,AS,31.64615,120.74221
Jiashan,CN,AS,30.84918,120.92583
Fenghuang,CN,AS,27.93557,109.59961
Hezhou,CN,AS,24.40357,111.56675
Zhu Cheng City,CN,AS,35.99502,119.40259
Changzheng,CN,AS,31.23913,121.36779
Shangri-La,CN,AS,27.82511,99.70779
Xilinhot,CN,AS,43.93889,116.07021
Lhoka,CN,AS,29.24301,91.77239
Ulanqab,CN,AS,40.993,113.133
Ordos,CN,AS,39.6086,109.78157
Taizhou,CN,AS,28.66266,121.43312
Taibai,CN,AS,30.82482,108.35783
Pailou,CN,AS,30.79641,108.3858
Sanhe,CN,AS,29.86864,107.73027
Qianjiang,CN,AS,29.53284,108.77478
Lizhi,CN,AS,29.70317,107.39521
Fengcheng,CN,AS,29.82587,107.06019
Huixing,CN,AS,29.68403,106.61486
Yangcheng,CN,AS,29.99968,106.25604
Nanjin,CN,AS,29.98497,106.26529
Shenglilu,CN,AS,29.35048,105.8775
Wenshan City,CN,AS,23.36306,104.25047
Bole,CN,AS,44.89334,82.06993
Liupanshui,CN,AS,26.59444,104.83333
Huanggang,CN,AS,30.45143,114.87035
Nanchuan,CN,AS,29.15201,107.10335
Xingning,CN,AS,24.1483,115.72272
Rizhao,CN,AS,35.41414,119.52908
Puyang,CN,AS,35.75641,115.04363
Jianshui,CN,AS,24.2774,101.224
Liuzhi,CN,AS,26.2342,105.426
Xuzhou,CN,AS,34.20442,117.28386
Lianyungang,CN,AS,34.59845,119.21556
Rugao,CN,AS,32.37035,120.57649
Jinzhong,CN,AS,37.68403,112.75471
Baoji,CN,AS,34.36775,107.23705
Huocheng,CN,AS,44.05305,80.87173
Bayan Nur,CN,AS,40.74143,107.38599
Tumxuk,CN,AS,39.86984,79.06118
Chongzuo,CN,AS,22.38161,107.3683
Fangchenggang,CN,AS,21.76945,108.35661
Yunlong,CN,AS,34.25281,117.25167
Yidu,CN,AS,36.77121,118.42454
Shizuishan,CN,AS,38.98082,106.3892
Hechi,CN,AS,24.69285,108.08376
Wanzhou,CN,AS,30.76451,108.39586
Yintai,CN,AS,35.11524,109.09702
Qingyang,CN,AS,35.70976,107.64455
Shuanglonghu,CN,AS,29.71617,106.60684
Liangping,CN,AS,30.66108,107.7661
Longling County,CN,AS,24.58663,98.68934
"Mianzhu, Deyang, Sichuan",CN,AS,31.33786,104.22057
Pingwu County,CN,AS,32.40732,104.52738
Hulunbuir,CN,AS,49.21141,119.75582
Bao'an,CN,AS,22.55213,113.88288
Bao'an Centre,CN,AS,22.57953,113.9163
Luohu District,CN,AS,22.54721,114.13149
Mengzi,CN,AS,23.36779,103.38212
Lushui,CN,AS,25.8232,98.85853
Lüliang,CN,AS,37.5192,111.14436
Nyingchi,CN,AS,29.64885,94.35509
Chéngguān Qū,CN,AS,29.63842,91.04441
Nossa Senhora de Fátima,CN,AS,22.20769,113.54831
Santo António,CN,AS,22.20208,113.54394
Zipaquirá,CO,SA,5.02208,-74.00481
Yopal,CO,SA,5.33573,-72.3939
Villavicencio,CO,SA,4.13238,-73.62564
Valledupar,CO,SA,10.46538,-73.2531
Tunja,CO,SA,5.54481,-73.35756
Tuluá,CO,SA,4.08466,-76.19536
Soledad,CO,SA,10.91843,-74.76459
Sogamoso,CO,SA,5.71434,-72.93391
Soacha,CO,SA,4.57937,-74.21682
Sincelejo,CO,SA,9.3045,-75.3905
Santa Marta,CO,SA,11.23855,-74.19427
Sabanalarga,CO,SA,10.63072,-74.92214
Rionegro,CO,SA,6.15515,-75.37371
Riohacha,CO,SA,11.54444,-72.90722
Quibdó,CO,SA,5.69188,-76.65835
Popayán,CO,SA,2.43823,-76.61316
Pitalito,CO,SA,1.85371,-76.05071
Piedecuesta,CO,SA,6.98789,-73.04953
Pereira,CO,SA,4.81428,-75.69488
Pasto,CO,SA,1.21456,-77.27846
Palmira,CO,SA,3.53944,-76.30361
Ocaña,CO,SA,8.23773,-73.35604
Neiva,CO,SA,2.93001,-75.27973
Mosquera,CO,SA,4.70592,-74.23021
Montería,CO,SA,8.75081,-75.87823
Medellín,CO,SA,6.245,-75.57151
Manizales,CO,SA,5.0668,-75.50684
Malambo,CO,SA,10.85953,-74.77386
Maicao,CO,SA,11.37837,-72.2395
Magangué,CO,SA,9.24202,-74.75467
Madrid,CO,SA,4.73245,-74.26419
Itagüí,CO,SA,6.18461,-75.59913
Ibagué,CO,SA,4.43573,-75.20289
Girón,CO,SA,7.0682,-73.16981
Girardot City,CO,SA,4.30079,-74.80754
Funza,CO,SA,4.71638,-74.21195
Floridablanca,CO,SA,7.06222,-73.08644
Florencia,CO,SA,1.61549,-75.60412
Facatativá,CO,SA,4.81367,-74.35453
Envigado,CO,SA,6.17591,-75.59174
Dosquebradas,CO,SA,4.83916,-75.66727
Cúcuta,CO,SA,7.90745,-72.5049
Chía,CO,SA,4.85876,-74.05866
Cartago,CO,SA,4.74639,-75.91167
Cartagena,CO,SA,10.39817,-75.49328
Cali,CO,SA,3.43054,-76.5199
Guadalajara de Buga,CO,SA,3.90089,-76.29783
Buenaventura,CO,SA,3.8801,-77.03116
Buenaventura,CO,SA,3.58333,-77
Bucaramanga,CO,SA,7.125,-73.11895
Bogotá,CO,SA,4.60971,-74.08175
Bello,CO,SA,6.33732,-75.55795
Barranquilla,CO,SA,10.96854,-74.78132
Barrancabermeja,CO,SA,7.06528,-73.85472
Armenia,CO,SA,4.53656,-75.67263
San José,CR,NA,9.93388,-84.08489
Vedado,CU,NA,23.13767,-82.39339
Santiago de Cuba,CU,NA,20.02287,-75.82171
Santa Clara,CU,NA,22.40711,-79.96581
San Miguel del Padrón,CU,NA,23.09544,-82.32669
Sancti Spíritus,CU,NA,21.93429,-79.4398
Pinar del Río,CU,NA,22.41649,-83.69657
Palma Soriano,CU,NA,20.2113,-75.99362
Matanzas,CU,NA,23.04388,-81.58284
Marianao,CU,NA,23.07385,-82.4189
Manzanillo,CU,NA,20.34173,-77.12126
Mantilla,CU,NA,23.06794,-82.34143
Las Tunas,CU,NA,20.96135,-76.95192
Havana,CU,NA,23.13302,-82.38304
Holguín,CU,NA,20.88722,-76.26306
Guantánamo,CU,NA,20.14444,-75.20917
Guanabacoa,CU,NA,23.12518,-82.30067
Fontanar,CU,NA,23.02389,-82.408
Cienfuegos,CU,NA,22.14681,-80.4481
Ciego de Ávila,CU,NA,21.8422,-78.76034
Cerro,CU,NA,23.10809,-82.3866
Camagüey,CU,NA,21.38083,-77.91694
Bayamo,CU,NA,20.37368,-76.64272
Balcón de la Lisa,CU,NA,23.05346,-82.4476
Arroyo Naranjo,CU,NA,23.03811,-82.37703
Almendares,CU,NA,23.11012,-82.42322
Ciudad Camilo Cienfuegos,CU,NA,23.16076,-82.32798
Centro Habana,CU,NA,23.13833,-82.36417
Boyeros,CU,NA,23.0072,-82.4017
Diez de Octubre,CU,NA,23.0881,-82.3597
Plaza de la Revolución,CU,NA,23.11936,-82.39197
Praia,CV,AF,14.93152,-23.51254
Willemstad,CW,NA,12.12246,-68.88641
Nicosia,CY,EU,35.17284,33.35397
Limassol,CY,EU,34.68406,33.03794
Prague,CZ,EU,50.08804,14.42076
Pilsen,CZ,EU,49.74747,13.37759
Ostrava,CZ,EU,49.83465,18.28204
Liberec,CZ,EU,50.76711,15.05619
Brno,CZ,EU,49.19522,16.60796
Würzburg,DE,EU,49.79391,9.95121
Wuppertal,DE,EU,51.25627,7.14816
Wolfsburg,DE,EU,52.42452,10.7815
Witten,DE,EU,51.44362,7.35258
Wilmersdorf,DE,EU,52.48333,13.31667
Wiesbaden,DE,EU,50.08601,8.24435
Ulm,DE,EU,48.39841,9.99155
Trier,DE,EU,49.75565,6.63935
Stuttgart,DE,EU,48.78232,9.17702
Solingen,DE,EU,51.17343,7.0845
Siegen,DE,EU,50.87481,8.02431
Schöneberg,DE,EU,52.49801,13.3443
Salzgitter,DE,EU,52.15705,10.4154
Saarbrücken,DE,EU,49.23262,7.00982
Rostock,DE,EU,54.0887,12.14049
Reutlingen,DE,EU,48.49144,9.20427
Remscheid,DE,EU,51.17983,7.1925
Regensburg,DE,EU,49.01513,12.10161
Recklinghausen,DE,EU,51.61379,7.19738
Prenzlauer Berg,DE,EU,52.53878,13.42443
Potsdam,DE,EU,52.39886,13.06566
Porz am Rhein,DE,EU,50.88637,7.0583
Pforzheim,DE,EU,48.88436,8.69892
Paderborn,DE,EU,51.71905,8.75439
Osnabrück,DE,EU,52.27264,8.0498
Oldenburg,DE,EU,53.14039,8.21479
Offenbach,DE,EU,50.10061,8.76647
Oberhausen,DE,EU,51.47805,6.8625
Nürnberg,DE,EU,49.45421,11.07752
Nippes,DE,EU,50.96545,6.95314
Neue Neustadt,DE,EU,52.15,11.63333
Neuss,DE,EU,51.19807,6.68504
Neukölln,DE,EU,52.47719,13.43126
Münster,DE,EU,51.96236,7.62571
Munich,DE,EU,48.13743,11.57549
Mülheim,DE,EU,51.43218,6.87967
Mönchengladbach,DE,EU,51.18539,6.44172
Moers,DE,EU,51.45342,6.6326
Marzahn,DE,EU,52.54525,13.56983
Mannheim,DE,EU,49.4891,8.46694
Mainz,DE,EU,49.98185,8.28008
Magdeburg,DE,EU,52.13129,11.63189
Ludwigshafen am Rhein,DE,EU,49.48121,8.44641
Lübeck,DE,EU,53.86893,10.68729
Leverkusen,DE,EU,51.0303,6.98432
Leipzig,DE,EU,51.33962,12.37129
Kreuzberg,DE,EU,52.49973,13.40338
Krefeld,DE,EU,51.33645,6.55381
Köln,DE,EU,50.93333,6.95
Koblenz,DE,EU,50.35357,7.57883
Kiel,DE,EU,54.32133,10.13489
Kassel,DE,EU,51.31667,9.5
Karlsruhe,DE,EU,49.00937,8.40444
Jena,DE,EU,50.92878,11.5899
Ingolstadt,DE,EU,48.76508,11.42372
Hildesheim,DE,EU,52.15077,9.95112
Herne,DE,EU,51.5388,7.22572
Heilbronn,DE,EU,49.13995,9.22054
Heidelberg,DE,EU,49.40768,8.69079
Harburg,DE,EU,53.46057,9.98388
Hannover,DE,EU,52.37052,9.73322
Hamm,DE,EU,51.68033,7.82089
Wandsbek,DE,EU,53.58334,10.08305
Marienthal,DE,EU,53.56667,10.08333
Hamburg-Mitte,DE,EU,53.55,10.01667
Eimsbüttel,DE,EU,53.57416,9.95679
Altona,DE,EU,53.55,9.93333
Hamburg,DE,EU,53.55073,9.99302
Halle (Saale),DE,EU,51.48158,11.97947
Hagen,DE,EU,51.36081,7.47168
Göttingen,DE,EU,51.53443,9.93228
Gera,DE,EU,50.88029,12.08187
Gelsenkirchen,DE,EU,51.50508,7.09654
Fürth,DE,EU,49.47593,10.98856
Friedrichshain,DE,EU,52.51559,13.45482
Freiburg,DE,EU,47.9959,7.85222
Frankfurt am Main,DE,EU,50.11552,8.68417
Essen,DE,EU,51.45657,7.01228
Erlangen,DE,EU,49.59099,11.00783
Erfurt,DE,EU,50.97734,11.03536
Düsseldorf,DE,EU,51.22172,6.77616
Duisburg,DE,EU,51.43247,6.76516
Dresden,DE,EU,51.05089,13.73832
Dortmund,DE,EU,51.51494,7.466
Darmstadt,DE,EU,49.87167,8.65027
Chemnitz,DE,EU,50.8357,12.92922
Charlottenburg,DE,EU,52.51667,13.28333
Bremerhaven,DE,EU,53.55357,8.57553
Bremen,DE,EU,53.07582,8.80717
Braunschweig,DE,EU,52.26594,10.52673
Bottrop,DE,EU,51.52392,6.9285
Bonn,DE,EU,50.73438,7.09549
Bochum,DE,EU,51.48165,7.21648
Bielefeld,DE,EU,52.03333,8.53333
Berlin,DE,EU,52.52437,13.41053
Bergisch Gladbach,DE,EU,50.9856,7.13298
Augsburg,DE,EU,48.37154,10.89851
Aachen,DE,EU,50.77664,6.08342
Mitte,DE,EU,52.52003,13.40489
Bergedorf,DE,EU,53.48462,10.22904
Hamburg-Nord,DE,EU,53.58935,9.984
Rodenkirchen,DE,EU,50.89328,6.99481
Djibouti,DJ,AF,11.58901,43.14503
Odense,DK,EU,55.39594,10.38831
Copenhagen,DK,EU,55.67594,12.56553
Århus,DK,EU,56.15674,10.21076
Aalborg,DK,EU,57.048,9.9187
Santo Domingo,DO,NA,18.47186,-69.89232
Santiago de los Caballeros,DO,NA,19.45036,-70.69085
San Pedro de Macorís,DO,NA,18.4539,-69.30864
San Francisco de Macorís,DO,NA,19.29377,-70.25285
Puerto Plata,DO,NA,19.79344,-70.6884
Salvaleón de Higüey,DO,NA,18.61501,-68.70798
Punta Cana,DO,NA,18.58182,-68.40431
La Romana,DO,NA,18.42332,-68.96635
La Vega,DO,NA,19.22031,-70.53101
San Cristóbal,DO,NA,18.41713,-70.10682
Bella Vista,DO,NA,18.45539,-69.9454
Santo Domingo Oeste,DO,NA,18.5,-70
Santo Domingo Este,DO,NA,18.48511,-69.84757
Touggourt,DZ,AF,33.11083,6.07
Tlemcen,DZ,AF,34.87833,-1.315
Tizi Ouzou,DZ,AF,36.71182,4.04591
Tiaret,DZ,AF,35.37103,1.31699
Tébessa,DZ,AF,35.40417,8.12417
Souk Ahras,DZ,AF,36.28639,7.95111
Skikda,DZ,AF,36.87617,6.90921
Sidi Bel Abbes,DZ,AF,35.18994,-0.63085
Sétif,DZ,AF,36.19112,5.41373
Saïda,DZ,AF,34.83033,0.15171
Rouiba,DZ,AF,36.73829,3.28079
Relizane,DZ,AF,35.73734,0.55599
Ouargla,DZ,AF,31.94932,5.32502
Oran,DZ,AF,35.69906,-0.63588
M'Sila,DZ,AF,35.70889,4.53722
Mostaganem,DZ,AF,35.93115,0.08918
Médéa,DZ,AF,36.26417,2.75393
Mascara,DZ,AF,35.39664,0.14027
Laghouat,DZ,AF,33.8,2.86514
Khenchela,DZ,AF,35.43583,7.14333
Jijel,DZ,AF,36.821,5.76352
Guelma,DZ,AF,36.46214,7.42608
Ghardaïa,DZ,AF,32.49094,3.67347
El Oued,DZ,AF,33.35608,6.86319
El Eulma,DZ,AF,36.15281,5.69016
Chlef,DZ,AF,36.16525,1.33452
El Achir,DZ,AF,36.06386,4.62744
Djelfa,DZ,AF,34.67279,3.263
Constantine,DZ,AF,36.365,6.61472
Bou Saâda,DZ,AF,35.20855,4.17402
Bordj el Kiffan,DZ,AF,36.74871,3.19249
Bordj Bou Arreridj,DZ,AF,36.07389,4.76139
Blida,DZ,AF,36.47004,2.8277
Biskra,DZ,AF,34.85038,5.72805
Béjaïa,DZ,AF,36.75587,5.08433
Béchar,DZ,AF,31.61667,-2.21667
Batna City,DZ,AF,35.55597,6.17414
Baraki,DZ,AF,36.66655,3.09606
Bab Ezzouar,DZ,AF,36.72615,3.18291
Annaba,DZ,AF,36.9,7.76667
Algiers,DZ,AF,36.73225,3.08746
Aïn Beïda,DZ,AF,35.79639,7.39278
Santo Domingo de los Colorados,EC,SA,-0.25368,-79.17628
Riobamba,EC,SA,-1.66506,-78.65887
Quito,EC,SA,-0.22985,-78.52495
Quevedo,EC,SA,-1.02881,-79.46264
Portoviejo,EC,SA,-1.05764,-80.45145
Milagro,EC,SA,-2.13396,-79.59337
Manta,EC,SA,-0.94937,-80.73137
Machala,EC,SA,-3.25886,-79.95876
Loja,EC,SA,-3.99313,-79.20422
Latacunga,EC,SA,-0.93424,-78.6152
Ibarra,EC,SA,0.34881,-78.12462
Guayaquil,EC,SA,-2.19616,-79.88621
Esmeraldas,EC,SA,0.9592,-79.65397
Eloy Alfaro,EC,SA,-2.16919,-79.83987
Daule,EC,SA,-1.86032,-79.97683
Cuenca,EC,SA,-2.8953,-78.9963
Ambato,EC,SA,-1.24908,-78.61675
Tallinn,EE,EU,59.43696,24.75353
Zefta,EG,AF,30.7142,31.24425
Ţimā,EG,AF,26.90843,31.43469
Tanta,EG,AF,30.78847,31.00192
Ţalkhā,EG,AF,31.0539,31.37787
Ţahţā,EG,AF,26.76866,31.50198
Sohag,EG,AF,26.55695,31.69478
Sinnūris,EG,AF,29.41345,30.86579
Shubrā al Khaymah,EG,AF,30.12511,31.25053
Shibīn al Kawm,EG,AF,30.55258,31.00904
Samālūţ,EG,AF,28.31214,30.71007
Rosetta,EG,AF,31.39951,30.41718
Qina,EG,AF,26.16418,32.72671
Qalyub,EG,AF,30.17922,31.2056
Mīt Ghamr,EG,AF,30.71524,31.2592
Munūf,EG,AF,30.46597,30.93199
Marsá Maţrūḩ,EG,AF,31.3529,27.23725
Manfalūţ,EG,AF,27.3126,30.96987
Mallawī,EG,AF,27.73264,30.84129
Maghāghah,EG,AF,28.64776,30.841
6th of October City,EG,AF,29.81667,31.05
Madīnat an Naşr,EG,AF,30.06667,31.3
Al ‘Āshir min Ramaḑān,EG,AF,30.29636,31.74633
Kirdāsah,EG,AF,30.03103,31.11109
Kom Ombo,EG,AF,24.47669,32.94626
Kafr ash Shaykh,EG,AF,31.11174,30.93991
Kafr ad Dawwār,EG,AF,31.13379,30.12969
Girga,EG,AF,26.33721,31.89295
Esna,EG,AF,25.29336,32.55402
Idkū,EG,AF,31.3073,30.2981
Ḩalwān,EG,AF,29.84144,31.30084
Ḩadā’iq al Qubbah,EG,AF,30.08843,31.28351
Fāqūs,EG,AF,30.72816,31.79697
Damietta,EG,AF,31.41648,31.81332
Disūq,EG,AF,31.13259,30.64784
Dikirnis,EG,AF,31.08898,31.59478
Dayrūţ,EG,AF,27.55642,30.81057
Damanhur,EG,AF,31.03408,30.46823
Būsh,EG,AF,29.14816,31.12733
Port Said,EG,AF,31.26531,32.3019
Bilqās,EG,AF,31.21452,31.35798
Bilbeis,EG,AF,30.42039,31.56223
Banī Suwayf,EG,AF,29.07441,31.09785
Banī Mazār,EG,AF,28.49456,30.80526
Banhā,EG,AF,30.45977,31.1842
Zagazig,EG,AF,30.58768,31.502
Assiut,EG,AF,27.18096,31.18368
Aswān,EG,AF,24.09082,32.89942
Suez,EG,AF,29.97371,32.52627
As Sinbillāwayn,EG,AF,30.88251,31.46275
Ashmūn,EG,AF,30.29735,30.97641
Luxor,EG,AF,25.69893,32.6421
Cairo,EG,AF,30.06263,31.24967
Minya,EG,AF,28.09193,30.75813
Al Maţarīyah,EG,AF,31.18287,32.03108
Al Manzalah,EG,AF,31.15823,31.936
Al Mansurah,EG,AF,31.03637,31.38069
Al Maḩallah al Kubrá,EG,AF,30.97063,31.1669
Al Khuşūş,EG,AF,30.15293,31.31501
Giza,EG,AF,30.00944,31.20861
Ismailia,EG,AF,30.60427,32.27225
Alexandria,EG,AF,31.20176,29.91582
Al Ḩawāmidīyah,EG,AF,29.9,31.25
Hurghada,EG,AF,27.25738,33.81291
Al Fayyum,EG,AF,29.30995,30.8418
Al Fashn,EG,AF,28.82306,30.89903
Arīsh,EG,AF,31.13159,33.79844
Akhmīm,EG,AF,26.5622,31.74566
Abū Tīj,EG,AF,27.04514,31.31845
Abū Kabīr,EG,AF,30.72508,31.67148
Abnūb,EG,AF,27.26881,31.15232
New Cairo,EG,AF,30.03,31.47
Al Qāhirah al Jadīdah,EG,AF,30.04214,31.44446
Al-'Ubūr,EG,AF,30.22886,31.48149
Laayoune,EH,AF,27.1418,-13.18797
Asmara,ER,AF,15.33805,38.93184
Valencia,ES,EU,39.47391,-0.37966
Telde,ES,EU,27.99243,-15.41915
Sevilla,ES,EU,37.38283,-5.97317
Santa Cruz de Tenerife,ES,EU,28.46824,-16.25462
La Laguna,ES,EU,28.4853,-16.32014
Palma,ES,EU,39.56939,2.65024
Orihuela,ES,EU,38.08483,-0.94401
Murcia,ES,EU,37.98704,-1.13004
Marbella,ES,EU,36.51543,-4.88583
Málaga,ES,EU,36.72016,-4.42034
Las Palmas de Gran Canaria,ES,EU,28.10178,-15.41573
Jerez de la Frontera,ES,EU,36.68645,-6.13606
Jaén,ES,EU,37.76922,-3.79028
Huelva,ES,EU,37.26638,-6.94004
Granada,ES,EU,37.18817,-3.60667
Elche,ES,EU,38.26218,-0.70107
Dos Hermanas,ES,EU,37.28287,-5.92088
Córdoba,ES,EU,37.89155,-4.77275
Castelló de la Plana,ES,EU,39.98567,-0.04935
Cartagena,ES,EU,37.60197,-0.98397
Cadiz,ES,EU,36.52672,-6.2891
Badajoz,ES,EU,38.87789,-6.97061
Almería,ES,EU,36.83814,-2.45974
Alicante,ES,EU,38.34517,-0.48149
Algeciras,ES,EU,36.13326,-5.45051
Albacete,ES,EU,38.99424,-1.85643
Zaragoza,ES,EU,41.65606,-0.87734
Gasteiz / Vitoria,ES,EU,42.84998,-2.67268
Villaverde,ES,EU,40.35,-3.7
Vigo,ES,EU,42.23282,-8.72264
Valladolid,ES,EU,41.65541,-4.72353
Torrejón de Ardoz,ES,EU,40.45535,-3.46973
Tetuán de las Victorias,ES,EU,40.45975,-3.6975
Terrassa,ES,EU,41.56667,2.01667
Tarragona,ES,EU,41.11905,1.24544
Barakaldo,ES,EU,43.29639,-2.98813
Santander,ES,EU,43.46589,-3.80493
Santa Coloma de Gramenet,ES,EU,41.45152,2.2081
Donostia / San Sebastián,ES,EU,43.31283,-1.97499
Sant Andreu,ES,EU,41.43541,2.18982
Salamanca,ES,EU,40.96882,-5.66388
Sabadell,ES,EU,41.54329,2.10942
Reus,ES,EU,41.15612,1.10687
Puente de Vallecas,ES,EU,40.39354,-3.662
Parla,ES,EU,40.23604,-3.76752
Pamplona,ES,EU,42.81687,-1.64323
Oviedo,ES,EU,43.36029,-5.84476
Ourense,ES,EU,42.33669,-7.86407
Móstoles,ES,EU,40.32234,-3.86496
Moratalaz,ES,EU,40.40742,-3.64935
Mataró,ES,EU,41.54211,2.4445
Madrid,ES,EU,40.4165,-3.70256
Logroño,ES,EU,42.46615,-2.45115
Lleida,ES,EU,41.61674,0.62218
León,ES,EU,42.60003,-5.57032
Leganés,ES,EU,40.32718,-3.7635
A Coruña,ES,EU,43.37135,-8.396
L'Hospitalet de Llobregat,ES,EU,41.35967,2.10028
Hortaleza,ES,EU,40.47444,-3.6411
Gràcia,ES,EU,41.40237,2.15641
Gijón,ES,EU,43.53573,-5.66152
Getafe,ES,EU,40.30571,-3.73295
Girona,ES,EU,41.98311,2.82493
Fuenlabrada,ES,EU,40.28419,-3.79415
Fuencarral,ES,EU,40.5,-3.68333
Ciudad Lineal,ES,EU,40.44505,-3.65132
Chamartín,ES,EU,40.46206,-3.6766
Burgos,ES,EU,42.34106,-3.70184
Bilbao,ES,EU,43.26271,-2.92528
Barcelona,ES,EU,41.38879,2.15899
Badalona,ES,EU,41.45004,2.24741
Alcorcón,ES,EU,40.34582,-3.82487
Alcobendas,ES,EU,40.54746,-3.64197
Alcalá de Henares,ES,EU,40.48205,-3.35996
Nou Barris,ES,EU,41.44163,2.17727
Moncloa-Aravaca,ES,EU,40.43547,-3.7317
Eixample,ES,EU,41.38896,2.16179
Sarrià-Sant Gervasi,ES,EU,41.40104,2.1394
Horta-Guinardó,ES,EU,41.41849,2.1677
Sants-Montjuïc,ES,EU,41.37263,2.1546
Sant Martí,ES,EU,41.41814,2.19933
Ciutat Vella,ES,EU,41.38022,2.17319
Arganzuela,ES,EU,40.40021,-3.69618
San Blas-Canillejas,ES,EU,40.43893,-3.61537
Latina,ES,EU,40.38897,-3.74569
Usera,ES,EU,40.38866,-3.70035
Salamanca,ES,EU,40.42972,-3.67975
Chamberí,ES,EU,40.43404,-3.70379
Carabanchel,ES,EU,40.39094,-3.7242
Madrid Centro,ES,EU,40.41831,-3.70275
Retiro,ES,EU,40.41317,-3.68307
Delicias,ES,EU,41.64928,-0.90757
Fuencarral-El Pardo,ES,EU,40.4984,-3.7314
Warder,ET,AF,6.97444,45.34083
Weldiya,ET,AF,11.8277,39.59164
Shashamane,ET,AF,7.2,38.6
Sebeta,ET,AF,8.91667,38.61667
Nek’emtē,ET,AF,9.08333,36.55
Nazrēt,ET,AF,8.55,39.26667
Mek'ele,ET,AF,13.49667,39.47528
Kombolcha,ET,AF,11.08155,39.74339
Jimma,ET,AF,7.67344,36.83441
Jijiga,ET,AF,9.35,42.8
Inda Silasē,ET,AF,14.10307,38.28289
Hosa’ina,ET,AF,7.54978,37.85374
Harar,ET,AF,9.31387,42.11815
Gonder,ET,AF,12.6,37.46667
Dire Dawa,ET,AF,9.59306,41.86611
Dīla,ET,AF,6.41667,38.31667
Dessie,ET,AF,11.13333,39.63333
Bishoftu,ET,AF,8.75225,38.97846
Debre Tabor,ET,AF,11.85,38.01667
Debre Mark’os,ET,AF,10.35,37.73333
Debre Birhan,ET,AF,9.67954,39.53262
Bahir Dar,ET,AF,11.59364,37.39077
Awasa,ET,AF,7.06205,38.47635
Āsela,ET,AF,7.95,39.13333
Arba Minch,ET,AF,6.03333,37.55
Ārabī,ET,AF,9.96278,42.49278
Addis Ababa,ET,AF,9.02497,38.74689
Ādīgrat,ET,AF,14.277,39.462
Sodo,ET,AF,6.86,37.76159
Burayu,ET,AF,9.03528,38.66083
Vantaa,FI,EU,60.29414,25.04099
Turku,FI,EU,60.45148,22.26869
Tampere,FI,EU,61.49911,23.78712
Oulu,FI,EU,65.01236,25.46816
Lahti,FI,EU,60.98267,25.66151
Kuopio,FI,EU,62.89238,27.67703
Jyväskylä,FI,EU,62.24147,25.72088
Helsinki,FI,EU,60.16952,24.93545
Espoo,FI,EU,60.2052,24.6522
East Helsinki,FI,EU,60.21043,25.08289
Villeurbanne,FR,EU,45.76601,4.8795
Tours,FR,EU,47.39484,0.70398
Toulouse,FR,EU,43.60426,1.44367
Toulon,FR,EU,43.12442,5.92836
Strasbourg,FR,EU,48.58392,7.74553
Saint-Étienne,FR,EU,45.43389,4.39
Rouen,FR,EU,49.44313,1.09932
Rennes,FR,EU,48.11109,-1.67431
Reims,FR,EU,49.26526,4.02853
Perpignan,FR,EU,42.69764,2.89541
Paris,FR,EU,48.85341,2.3488
Orléans,FR,EU,47.90248,1.90407
Nîmes,FR,EU,43.83665,4.35788
Nice,FR,EU,43.70313,7.26608
Nantes,FR,EU,47.21725,-1.55336
Nancy,FR,EU,48.68439,6.18496
Mulhouse,FR,EU,47.75205,7.32866
Montreuil,FR,EU,48.86415,2.44322
Montpellier,FR,EU,43.61093,3.87635
Metz,FR,EU,49.11911,6.17269
Marseille,FR,EU,43.29695,5.38107
Lyon,FR,EU,45.74906,4.84789
Limoges,FR,EU,45.83362,1.24759
Lille,FR,EU,50.63391,3.05512
Le Mans,FR,EU,48.0021,0.20251
Le Havre,FR,EU,49.49346,0.10785
Grenoble,FR,EU,45.17869,5.71479
Dijon,FR,EU,47.31344,5.01391
Clermont-Ferrand,FR,EU,45.77969,3.08682
Caen,FR,EU,49.18585,-0.35912
Brest,FR,EU,48.39029,-4.48628
Boulogne-Billancourt,FR,EU,48.83545,2.24128
Bordeaux,FR,EU,44.84124,-0.58046
Besançon,FR,EU,47.24878,6.01815
Argenteuil,FR,EU,48.94788,2.24744
Angers,FR,EU,47.47156,-0.55202
Amiens,FR,EU,49.9,2.3
Aix-en-Provence,FR,EU,43.5283,5.44973
Lyon 03,FR,EU,45.76124,4.85184
Saint-Quentin-en-Yvelines,FR,EU,48.77186,2.01891
Cergy-Pontoise,FR,EU,49.03894,2.07805
Marne La Vallée,FR,EU,48.83584,2.64241
Paris 11e Arrondissement,FR,EU,48.85834,2.37952
Paris 12e Arrondissement,FR,EU,48.83523,2.43505
Paris 13e Arrondissement,FR,EU,48.8262,2.35986
Port-Gentil,GA,AF,-0.71933,8.78151
Libreville,GA,AF,0.39241,9.45356
Franceville,GA,AF,-1.63333,13.58357
York,GB,EU,53.95763,-1.08271
Worcester,GB,EU,52.18935,-2.22001
Wolverhampton,GB,EU,52.58547,-2.12296
Woking,GB,EU,51.31903,-0.55893
Wigan,GB,EU,53.54296,-2.63706
City of Westminster,GB,EU,51.4975,-0.1357
West Bromwich,GB,EU,52.51868,-1.9945
Watford,GB,EU,51.65531,-0.39602
Warrington,GB,EU,53.39254,-2.58024
Walthamstow,GB,EU,51.59067,-0.02077
Walsall,GB,EU,52.58528,-1.98396
Wakefield,GB,EU,53.68331,-1.49768
Tottenham,GB,EU,51.60373,-0.06794
Swindon,GB,EU,51.55797,-1.78116
Swansea,GB,EU,51.62079,-3.94323
Sutton Coldfield,GB,EU,52.56667,-1.81667
Sutton,GB,EU,51.35,-0.2
Sunderland,GB,EU,54.90465,-1.38222
Stoke-on-Trent,GB,EU,53.00415,-2.18538
Stockport,GB,EU,53.40979,-2.15761
Southend-on-Sea,GB,EU,51.53782,0.71433
Southampton,GB,EU,50.90395,-1.40428
Solihull,GB,EU,52.41426,-1.78094
Slough,GB,EU,51.50949,-0.59541
Sheffield,GB,EU,53.38297,-1.4659
Salford,GB,EU,53.48771,-2.29042
Saint Peters,GB,EU,51.36667,1.41667
St Helens,GB,EU,53.45,-2.73333
Rotherham,GB,EU,53.43012,-1.35678
Reading,GB,EU,51.45625,-0.97113
Preston,GB,EU,53.76282,-2.70452
Portsmouth,GB,EU,50.79899,-1.09125
Poole,GB,EU,50.71429,-1.98458
Plymouth,GB,EU,50.37153,-4.14305
Peterborough,GB,EU,52.57364,-0.24777
Oxford,GB,EU,51.75222,-1.25596
Oldham,GB,EU,53.54051,-2.1183
Nottingham,GB,EU,52.9536,-1.15047
Norwich,GB,EU,52.62783,1.29834
Northampton,GB,EU,52.25,-0.88333
Newport,GB,EU,51.58774,-2.99835
Newcastle upon Tyne,GB,EU,54.97328,-1.61396
Newcastle under Lyme,GB,EU,53,-2.23333
Milton Keynes,GB,EU,52.04172,-0.75583
Middlesbrough,GB,EU,54.57623,-1.23483
Mansfield,GB,EU,53.13333,-1.2
Manchester,GB,EU,53.48095,-2.23743
Maidstone,GB,EU,51.26667,0.51667
Luton,GB,EU,51.87967,-0.41748
London,GB,EU,51.50853,-0.12574
Liverpool,GB,EU,53.41058,-2.97794
Lincoln,GB,EU,53.22683,-0.53792
Leicester,GB,EU,52.6386,-1.13169
Leeds,GB,EU,53.79648,-1.54785
Kingston upon Hull,GB,EU,53.7446,-0.33525
Islington,GB,EU,51.53622,-0.10304
Ipswich,GB,EU,52.05917,1.15545
Ilford,GB,EU,51.55765,0.07278
Huddersfield,GB,EU,53.64904,-1.78416
High Wycombe,GB,EU,51.62907,-0.74934
Hastings,GB,EU,50.85568,0.58009
Harrow,GB,EU,51.57835,-0.33208
Gloucester,GB,EU,51.86568,-2.2431
Glasgow,GB,EU,55.86515,-4.25763
Gillingham,GB,EU,51.38914,0.54863
Exeter,GB,EU,50.7236,-3.52751
Enfield Town,GB,EU,51.65147,-0.08497
Edinburgh,GB,EU,55.95206,-3.19648
Eastbourne,GB,EU,50.76871,0.28453
Dundee,GB,EU,56.46913,-2.97489
Dudley,GB,EU,52.5,-2.08333
Doncaster,GB,EU,53.52285,-1.13116
Derby,GB,EU,52.92277,-1.47663
Dagenham,GB,EU,51.55,0.16667
Croydon,GB,EU,51.38333,-0.1
Crawley,GB,EU,51.11303,-0.18312
Coventry,GB,EU,52.40656,-1.51217
Colchester,GB,EU,51.88921,0.90421
Chesterfield,GB,EU,53.25,-1.41667
Cheltenham,GB,EU,51.90006,-2.07972
Chelmsford,GB,EU,51.73575,0.46958
Cardiff,GB,EU,51.48,-3.18
Cambridge,GB,EU,52.2,0.11667
Burton upon Trent,GB,EU,52.80728,-1.64263
Burnley,GB,EU,53.8,-2.23333
Bristol,GB,EU,51.45523,-2.59665
Brighton,GB,EU,50.82838,-0.13947
Brent,GB,EU,51.55306,-0.3023
Bradford,GB,EU,53.79391,-1.75206
Bournemouth,GB,EU,50.72048,-1.8795
Bolton,GB,EU,53.58333,-2.43333
Blackpool,GB,EU,53.81667,-3.05
Blackburn,GB,EU,53.75,-2.48333
Birmingham,GB,EU,52.48142,-1.89983
Birkenhead,GB,EU,53.39337,-3.01479
Bexley,GB,EU,51.44162,0.14866
Belfast,GB,EU,54.59682,-5.92541
Bedford,GB,EU,52.13459,-0.46632
Bath,GB,EU,51.3751,-2.36172
Basingstoke,GB,EU,51.26249,-1.08708
Basildon,GB,EU,51.56844,0.45782
Aberdeen,GB,EU,57.14369,-2.09814
Telford,GB,EU,52.67659,-2.44926
Mendip,GB,EU,51.2372,-2.6266
Archway,GB,EU,51.56733,-0.13415
Tbilisi,GE,AS,41.69143,44.83412
Rustavi,GE,AS,41.56271,44.9787
Kutaisi,GE,AS,42.26791,42.69459
Batumi,GE,AS,41.64077,41.6306
Twifu Praso,GH,AF,5.61411,-1.5502
Teshi Old Town,GH,AF,5.58365,-0.10722
Tema,GH,AF,5.6698,-0.01657
Tamale,GH,AF,9.40079,-0.8393
Takoradi,GH,AF,4.89816,-1.76029
Sekondi-Takoradi,GH,AF,4.92678,-1.75773
Obuase,GH,AF,6.20228,-1.66796
Medina Estates,GH,AF,5.6658,-0.16307
Kumasi,GH,AF,6.68848,-1.62443
Koforidua,GH,AF,6.09408,-0.25913
Ho,GH,AF,6.60084,0.4713
Cape Coast,GH,AF,5.10535,-1.2466
Ashaiman,GH,AF,5.69951,-0.03484
Amanfrom,GH,AF,5.53532,-0.39827
Atsiaman,GH,AF,5.69775,-0.32824
Accra,GH,AF,5.55602,-0.1969
Sekondi,GH,AF,4.93422,-1.71454
Serekunda,GM,AF,13.43833,-16.67806
Siguiri,GN,AF,11.42282,-9.16852
Kamsar,GN,AF,10.65,-14.61667
Nzérékoré,GN,AF,7.75624,-8.8179
Manéah,GN,AF,9.73333,-13.41667
Labé,GN,AF,11.31823,-12.28332
Kissidougou,GN,AF,9.1848,-10.09987
Kindia,GN,AF,10.05692,-12.86576
Kankan,GN,AF,10.38542,-9.30568
Dubréka,GN,AF,9.79111,-13.52333
Dixinn,GN,AF,9.55111,-13.67306
Conakry,GN,AF,9.53795,-13.67729
Camayenne,GN,AF,9.535,-13.68778
Malabo,GQ,AF,3.75578,8.78166
Bata,GQ,AF,1.86391,9.76582
Piraeus,GR,EU,37.94203,23.64619
Peristéri,GR,EU,38.01539,23.69187
Pátra,GR,EU,38.2462,21.73508
Lárisa,GR,EU,39.62847,22.42112
Kallithéa,GR,EU,37.95,23.7
Irákleion,GR,EU,35.32787,25.14341
Athens,GR,EU,37.98376,23.72784
Thessaloníki,GR,EU,40.64072,22.93493
Villa Nueva,GT,NA,14.52512,-90.58544
Villa Canales,GT,NA,14.48285,-90.53425
Totonicapán,GT,NA,14.91188,-91.36054
Santa Lucía Cotzumalguapa,GT,NA,14.33505,-91.02339
San Juan Sacatepéquez,GT,NA,14.71889,-90.64417
Quetzaltenango,GT,NA,14.84462,-91.52316
Puerto Barrios,GT,NA,15.72724,-88.59787
Petapa,GT,NA,14.50189,-90.56196
Mixco,GT,NA,14.63077,-90.60711
Jutiapa,GT,NA,14.28491,-89.88798
Jalapa,GT,NA,14.63542,-89.99112
Escuintla,GT,NA,14.30097,-90.78816
Cobán,GT,NA,15.47025,-90.37455
Coatepeque,GT,NA,14.70413,-91.86426
Guatemala City,GT,NA,14.64072,-90.51327
Chiquimula,GT,NA,14.8009,-89.54641
Chinautla,GT,NA,14.70289,-90.49983
Chichicastenango,GT,NA,14.94333,-91.11116
Bissau,GW,AF,11.86357,-15.59767
Georgetown,GY,SA,6.80448,-58.15527
Tsuen Wan,HK,AS,22.37137,114.11329
Yuen Long San Hui,HK,AS,22.43333,114.03333
Yuen Long Kau Hui,HK,AS,22.44831,114.03199
Yuen Long,HK,AS,22.44518,114.02621
Wong Tai Sin,HK,AS,22.35,114.18333
Wan Chai,HK,AS,22.28142,114.17258
Tuen Mun,HK,AS,22.39175,113.97157
Tsing Yi Town,HK,AS,22.35,114.1
Tseung Kwan O,HK,AS,22.32789,114.24992
Tin Shui Wai,HK,AS,22.45679,114.00234
Tai Po,HK,AS,22.45007,114.16877
Sha Tin,HK,AS,22.38333,114.18333
Sham Shui Po,HK,AS,22.33023,114.15945
San Tung Chung Hang,HK,AS,22.27875,113.94307
Ma On Shan,HK,AS,22.40613,114.24079
Kwai Chung,HK,AS,22.36828,114.13877
Kowloon City,HK,AS,22.33047,114.19222
Kowloon,HK,AS,22.31667,114.18333
Hong Kong,HK,AS,22.27832,114.17469
Aberdeen,HK,AS,22.24802,114.15289
Fanling,HK,AS,22.49487,114.13949
Victoria,HK,AS,22.2875,114.14417
Tung Chung,HK,AS,22.28783,113.94243
New Territories,HK,AS,22.42441,114.11095
Hong Kong Island,HK,AS,22.26302,114.18419
Kowloon City Centre,HK,AS,22.32979,114.18889
Tegucigalpa,HN,NA,14.0818,-87.20681
San Pedro Sula,HN,NA,15.50585,-88.02588
La Ceiba,HN,NA,15.75971,-86.78221
El Progreso,HN,NA,15.4,-87.8
Choloma,HN,NA,15.61444,-87.95302
Zagreb,HR,EU,45.81444,15.97798
Split,HR,EU,43.50891,16.43915
Rijeka,HR,EU,45.32673,14.44241
Port-de-Paix,HT,NA,19.93984,-72.83037
Port-au-Prince,HT,NA,18.54349,-72.33881
Tigwav,HT,NA,18.43117,-72.86521
Pétionville,HT,NA,18.5125,-72.28528
Léogâne,HT,NA,18.5111,-72.63343
Jacmel,HT,NA,18.23569,-72.53686
Delmas,HT,NA,18.54478,-72.30036
Croix-des-Bouquets,HT,NA,18.57677,-72.22625
Les Cayes,HT,NA,18.19199,-73.74948
Carrefour,HT,NA,18.54114,-72.39922
Cap-Haïtien,HT,NA,19.75938,-72.19815
Szeged,HU,EU,46.253,20.14824
Nyíregyháza,HU,EU,47.95539,21.71671
Miskolc,HU,EU,48.10327,20.77806
Debrecen,HU,EU,47.53167,21.62444
Zugló,HU,EU,47.51758,19.10549
Újpest,HU,EU,47.56863,19.08456
Székesfehérvár,HU,EU,47.18995,18.41034
Pécs,HU,EU,46.07617,18.22814
Kecskemét,HU,EU,46.90618,19.69128
Győr,HU,EU,47.68333,17.63512
Budapest,HU,EU,47.49835,19.04045
Budapest XI. kerület,HU,EU,47.47603,19.03605
Budapest XIII. kerület,HU,EU,47.52978,19.08068
Budapest III. kerület,HU,EU,47.54157,19.04501
Tebingtinggi,ID,AS,3.3285,99.1625
Tanjungbalai,ID,AS,2.96667,99.8
Sunggal,ID,AS,3.5765,98.6151
Rantauprapat,ID,AS,2.1,99.83333
Percut,ID,AS,3.6253,98.864
Perbaungan,ID,AS,3.5679,98.956
Pematangsiantar,ID,AS,2.9595,99.0687
Padangsidempuan,ID,AS,1.37952,99.27146
Medan,ID,AS,3.58333,98.66667
Lhokseumawe,ID,AS,5.1801,97.1507
Langsa,ID,AS,4.4683,97.9683
Kisaran,ID,AS,2.9845,99.6158
Gunungsitoli,ID,AS,1.2888,97.6143
Binjai,ID,AS,3.6001,98.4854
Belawan,ID,AS,3.7755,98.6832
Banda Aceh,ID,AS,5.54167,95.33333
Yogyakarta,ID,AS,-7.80139,110.36472
Weru,ID,AS,-6.711,108.5037
Watampone,ID,AS,-4.5386,120.3279
Ungaran,ID,AS,-7.13972,110.405
Makassar,ID,AS,-5.14861,119.43194
Timika,ID,AS,-4.61407,136.67679
Ternate,ID,AS,0.79065,127.38424
Tegal,ID,AS,-6.8694,109.1402
Tasikmalaya,ID,AS,-7.3274,108.2207
Tarakan,ID,AS,3.31332,117.59152
Tanjung Pinang,ID,AS,0.91667,104.45833
Tanjung Pandan,ID,AS,-2.73353,107.63477
Bandar Lampung,ID,AS,-5.42917,105.26111
Tangerang,ID,AS,-6.17806,106.63
Surakarta,ID,AS,-7.55611,110.83167
Surabaya,ID,AS,-7.24917,112.75083
Sungailiat,ID,AS,-1.85442,106.12215
Sumedang,ID,AS,-6.85861,107.91639
Sukabumi,ID,AS,-6.91806,106.92667
Subang,ID,AS,-6.57,107.75667
Sorong,ID,AS,-0.87956,131.26104
Soreang,ID,AS,-7.03306,107.51833
Situbondo,ID,AS,-7.70623,114.00976
Singosari,ID,AS,-7.8924,112.6658
Singkawang,ID,AS,0.90925,108.98463
Singaraja,ID,AS,-8.112,115.08818
Sidoarjo,ID,AS,-7.4478,112.7183
Serang,ID,AS,-6.11528,106.15417
Sepatan,ID,AS,-6.11889,106.575
Semarang,ID,AS,-6.99306,110.42083
Sawangan,ID,AS,-6.40278,106.77444
Sampit,ID,AS,-2.5315,112.9496
Samarinda,ID,AS,-0.49167,117.14583
Salatiga,ID,AS,-7.33194,110.49278
Rengasdengklok,ID,AS,-6.15917,107.29806
Rangkasbitung,ID,AS,-6.3591,106.2494
Purwokerto,ID,AS,-7.42139,109.23444
Purwodadi,ID,AS,-7.0868,110.9158
Purwakarta,ID,AS,-6.55694,107.44333
Probolinggo,ID,AS,-7.7543,113.2159
Pontianak,ID,AS,-0.03194,109.325
Plumbon,ID,AS,-6.705,108.47278
Prabumulih,ID,AS,-3.43447,104.23056
Pemalang,ID,AS,-6.89193,109.38263
Pelabuhanratu,ID,AS,-6.9875,106.55139
Pekanbaru,ID,AS,0.51667,101.44167
Pekalongan,ID,AS,-6.8886,109.6753
Payakumbuh,ID,AS,-0.2159,100.6334
Pati,ID,AS,-6.7559,111.038
Pasuruan,ID,AS,-7.6453,112.9075
Paseh,ID,AS,-7.068,107.794
Pasarkemis,ID,AS,-6.17028,106.53028
Parung,ID,AS,-6.42139,106.73306
Parepare,ID,AS,-4.0135,119.6255
Pangkalpinang,ID,AS,-2.12914,106.11377
Pamulang,ID,AS,-6.34278,106.73833
Pamanukan,ID,AS,-6.28417,107.81056
Palu,ID,AS,-0.90833,119.87083
Palopo,ID,AS,-2.9925,120.19694
Palembang,ID,AS,-2.91673,104.7458
Palangkaraya,ID,AS,-2.20833,113.91667
Padang,ID,AS,-0.94924,100.35427
Mojokerto,ID,AS,-7.4664,112.4338
Metro,ID,AS,-5.11306,105.30667
Mataram,ID,AS,-8.58333,116.11667
Martapura,ID,AS,-3.4109,114.8642
Manokwari,ID,AS,-0.86291,134.06402
Manado,ID,AS,1.48218,124.84892
Malang,ID,AS,-7.9797,112.6304
Magelang,ID,AS,-7.47056,110.21778
Madiun,ID,AS,-7.6298,111.5239
Lumajang,ID,AS,-8.1335,113.2248
Lubuklinggau,ID,AS,-3.2945,102.8614
Loa Janan,ID,AS,-0.58295,117.09503
Lembang,ID,AS,-6.81167,107.6175
Lawang,ID,AS,-7.8353,112.6947
Labuan Bajo,ID,AS,-8.4964,119.8877
Kuningan,ID,AS,-6.97583,108.48306
Kresek,ID,AS,-6.13139,106.37972
Klaten,ID,AS,-7.70583,110.60639
Kendari,ID,AS,-3.9778,122.51507
Kedungwuni,ID,AS,-6.97038,109.64794
Kediri,ID,AS,-7.81667,112.01667
Jombang,ID,AS,-7.54595,112.23307
Jepara,ID,AS,-6.5924,110.671
Jember,ID,AS,-8.17211,113.69953
Jambi City,ID,AS,-1.6,103.61667
Jakarta,ID,AS,-6.21462,106.84513
Indramayu,ID,AS,-6.32639,108.32
Grogol,ID,AS,-7.60111,110.81861
Gorontalo,ID,AS,0.5375,123.0625
Garut,ID,AS,-7.245,107.921
Dumai,ID,AS,1.66711,101.44316
Depok,ID,AS,-7.7625,110.43167
Depok,ID,AS,-6.4,106.81861
Denpasar,ID,AS,-8.65,115.21667
Curug,ID,AS,-6.26583,106.55639
Citeureup,ID,AS,-6.48556,106.88194
Cirebon,ID,AS,-6.7063,108.557
Ciputat,ID,AS,-6.2375,106.69556
Cimahi,ID,AS,-6.87222,107.5425
Cileunyi,ID,AS,-6.93889,107.75278
Cileungsir,ID,AS,-6.39472,106.95917
Cilegon,ID,AS,-6.0144,106.0542
Cilacap,ID,AS,-7.72639,109.00944
Cikarang,ID,AS,-6.26111,107.15278
Cikampek,ID,AS,-6.41972,107.45583
Cibinong,ID,AS,-6.48167,106.85417
Cianjur,ID,AS,-6.82222,107.13944
Ciamis,ID,AS,-7.3257,108.3534
Ciampea,ID,AS,-6.55472,106.70083
Bukittinggi,ID,AS,-0.30907,100.37055
Bontang,ID,AS,0.1324,117.4854
Bogor,ID,AS,-6.59444,106.78917
Blitar,ID,AS,-8.0983,112.1681
Bitung,ID,AS,1.44059,125.12824
Bima,ID,AS,-8.46006,118.72667
Bengkulu,ID,AS,-3.80044,102.26554
Bekasi,ID,AS,-6.2349,106.9896
Baubau,ID,AS,-5.4633,122.6024
Baturaja,ID,AS,-4.12891,104.16695
Batu,ID,AS,-7.87,112.52833
Batang,ID,AS,-6.4846,110.7083
Banyuwangi,ID,AS,-8.2325,114.35755
Banjarmasin,ID,AS,-3.31987,114.59075
Banjaran,ID,AS,-7.04528,107.58778
Banjar,ID,AS,-7.1955,107.4313
Bangil,ID,AS,-7.59939,112.8186
Bandung,ID,AS,-6.92222,107.60694
Balikpapan,ID,AS,-1.26753,116.82887
Astanajapura,ID,AS,-6.8017,108.6311
Arjawinangun,ID,AS,-6.64528,108.41028
Ambon,ID,AS,-3.69583,128.18333
Adiwerna,ID,AS,-6.9375,109.1325
Padalarang,ID,AS,-6.83778,107.47278
Cikupa,ID,AS,-6.23639,106.50833
Teluknaga,ID,AS,-6.09889,106.63806
Kupang,ID,AS,-10.17083,123.60694
Merauke,ID,AS,-8.49958,140.40613
Jayapura,ID,AS,-2.53371,140.71813
Batam,ID,AS,1.14937,104.02491
Sukawati,ID,AS,-8.4913,115.0459
South Tangerang,ID,AS,-6.28862,106.71789
Dublin,IE,EU,53.33306,-6.24889
Cork,IE,EU,51.89797,-8.47061
South Dublin,IE,EU,53.29026,-6.34151
Jerusalem,IL,AS,31.76904,35.21633
Tel Aviv,IL,AS,32.08088,34.78057
Rishon LeTsiyyon,IL,AS,31.97102,34.78939
Reẖovot,IL,AS,31.89421,34.81199
Ramat Gan,IL,AS,32.08227,34.81065
Petaẖ Tiqva,IL,AS,32.08707,34.88747
Netanya,IL,AS,32.33291,34.85992
Kfar Saba,IL,AS,32.175,34.90694
H̱olon,IL,AS,32.01034,34.77918
Haifa,IL,AS,32.81303,34.99928
Bet Shemesh,IL,AS,31.73072,34.99293
Bnei Brak,IL,AS,32.08074,34.8338
Beersheba,IL,AS,31.25181,34.7913
Bat Yam,IL,AS,32.02379,34.75185
Ashkelon,IL,AS,31.66926,34.57149
Ashdod,IL,AS,31.79213,34.64966
West Jerusalem,IL,AS,31.78199,35.21961
Yelahanka,IN,AS,13.10073,77.59632
Yavatmāl,IN,AS,20.39324,78.13201
Yamuna Nagar,IN,AS,30.12796,77.28371
Wardha,IN,AS,20.73933,78.59784
Warangal,IN,AS,18,79.58333
Vizianagaram,IN,AS,18.11692,83.41148
Visakhapatnam,IN,AS,17.68009,83.20161
Virār,IN,AS,19.45591,72.81136
Vijayawada,IN,AS,16.50745,80.6466
Vidisha,IN,AS,23.52604,77.81092
Verāval,IN,AS,20.9077,70.36786
Vellore,IN,AS,12.9184,79.13255
Vejalpur,IN,AS,22.69021,73.56299
Vasco da Gama,IN,AS,15.39585,73.81568
Varanasi,IN,AS,25.31668,83.01041
Valsād,IN,AS,20.61013,72.93428
Vadodara,IN,AS,22.29941,73.20812
Uppal Kalan,IN,AS,17.40577,78.55911
Unnāo,IN,AS,26.54706,80.48781
Uluberiya,IN,AS,22.4756,88.09898
Ulhasnagar,IN,AS,19.21667,73.15
Ujjain,IN,AS,23.18239,75.77643
Udupi,IN,AS,13.33467,74.74617
Udgīr,IN,AS,18.39258,77.11756
Udaipur,IN,AS,24.58584,73.71346
Ooty,IN,AS,11.4134,76.69521
Tumkūr,IN,AS,13.34136,77.1022
Thiruvananthapuram,IN,AS,8.4855,76.94924
Thrissur,IN,AS,10.51667,76.21667
Tonk,IN,AS,26.16638,75.78824
Titāgarh,IN,AS,22.74252,88.37326
Tiruvottiyūr,IN,AS,13.15823,80.30181
Tiruvannamalai,IN,AS,12.22662,79.07461
Tiruppur,IN,AS,11.11541,77.35456
Tirupati,IN,AS,13.63551,79.41989
Tirunelveli,IN,AS,8.72742,77.6838
Tiruchirappalli,IN,AS,10.8155,78.69651
Tinsukia,IN,AS,27.48905,95.35992
Thanjavur,IN,AS,10.78523,79.13909
Thānesar,IN,AS,29.97323,76.83214
Thāne,IN,AS,19.19704,72.96355
Teni,IN,AS,10.01115,77.47772
Thenali,IN,AS,16.24253,80.63982
Tambaram,IN,AS,12.9246,80.12707
Tadpatri,IN,AS,14.90832,78.01031
Tadepalligudem,IN,AS,16.81467,81.52717
Suriāpet,IN,AS,17.14054,79.62045
Surendranagar,IN,AS,22.72706,71.64856
Surat,IN,AS,21.19594,72.83023
Sultānpur,IN,AS,26.25788,82.07269
Sūjāngarh,IN,AS,27.7,74.46667
Srinagar,IN,AS,34.08565,74.80555
Srikakulam,IN,AS,18.2989,83.89751
Sonīpat,IN,AS,28.99478,77.01937
Rajpur Sonarpur,IN,AS,22.4382,88.43205
Siwān,IN,AS,26.22096,84.35609
Sivakasi,IN,AS,9.44999,77.79797
Sītāpur,IN,AS,27.56192,80.68265
Sirsa,IN,AS,29.53489,75.02898
Shimla,IN,AS,31.10442,77.16662
Silchar,IN,AS,24.82733,92.79787
Sīkar,IN,AS,27.61206,75.13996
Shyamnagar,IN,AS,22.83333,88.36667
Shrīrāmpur,IN,AS,22.75278,88.34222
Sholapur,IN,AS,17.67152,75.91044
Shivpuri,IN,AS,25.42378,77.66223
Shivamogga,IN,AS,13.93157,75.56791
Shillong,IN,AS,25.56892,91.88313
Siliguri,IN,AS,26.71004,88.42851
Shāntipur,IN,AS,23.24723,88.43302
Shāhjānpur,IN,AS,27.88165,79.90918
Seoni,IN,AS,22.08503,79.55037
Sehore,IN,AS,23.2,77.08333
Secunderabad,IN,AS,17.50427,78.54263
Sawai Madhopur,IN,AS,26.02301,76.34408
Satna,IN,AS,24.57726,80.82719
Satara,IN,AS,17.68589,73.99333
Sasarām,IN,AS,24.94942,84.01645
Sāngli,IN,AS,16.85438,74.56417
Sambhal,IN,AS,28.58498,78.56959
Sambalpur,IN,AS,21.46527,83.97573
Salem,IN,AS,11.65376,78.15538
Saharsa,IN,AS,25.87498,86.59611
Sahāranpur,IN,AS,29.9679,77.54522
Saugor,IN,AS,23.83877,78.73874
Roorkee,IN,AS,29.86632,77.89118
Rohtak,IN,AS,28.89447,76.58917
Robertsonpet,IN,AS,12.95629,78.27539
Rishra,IN,AS,22.72394,88.34563
Rewāri,IN,AS,28.199,76.6183
Rewa,IN,AS,24.53256,81.29234
Rourkela,IN,AS,22.22496,84.86414
Ratlām,IN,AS,23.33033,75.04032
Rasapūdipalem,IN,AS,17.73308,83.31622
Rānipet,IN,AS,12.92471,79.33331
Rānīganj,IN,AS,23.6164,87.13061
Ranebennur,IN,AS,14.62239,75.62951
Ranchi,IN,AS,23.34316,85.3094
Rāmpur,IN,AS,28.81014,79.02699
Rāmgundam,IN,AS,18.80084,79.45206
Rāj-Nāndgaon,IN,AS,21.09687,81.0289
Rājkot,IN,AS,22.29161,70.79322
Rajapalayam,IN,AS,9.45296,77.55335
Rajamahendravaram,IN,AS,17.00517,81.77784
Raipur,IN,AS,21.23333,81.63333
Raigarh,IN,AS,21.89764,83.3966
Rāiganj,IN,AS,25.61281,88.12449
Rāichūr,IN,AS,16.20546,77.35567
Raebareli,IN,AS,26.2309,81.23315
Kollam,IN,AS,8.88113,76.58469
Puruliya,IN,AS,23.33062,86.36303
Purnia,IN,AS,25.77895,87.47422
Puri,IN,AS,19.79825,85.82494
Pune,IN,AS,18.51957,73.85535
Punāsa,IN,AS,22.23507,76.39335
Pudukkottai,IN,AS,10.38128,78.82141
Proddatūr,IN,AS,14.7502,78.54813
Port Blair,IN,AS,11.66613,92.74635
Porbandar,IN,AS,21.64219,69.60929
Ponnāni,IN,AS,10.76695,75.92523
Puducherry,IN,AS,11.93381,79.82979
Pimpri,IN,AS,18.62292,73.80696
Pīlibhīt,IN,AS,28.63124,79.80436
Phagwāra,IN,AS,31.22452,75.77387
Patna,IN,AS,25.59408,85.13563
Patiāla,IN,AS,30.33625,76.3922
Pathānkot,IN,AS,32.27484,75.65287
Pātan,IN,AS,23.8507,72.12963
Parbhani,IN,AS,19.26855,76.77081
Panvel,IN,AS,18.98878,73.11013
Panipat,IN,AS,29.38747,76.96825
Pānihāti,IN,AS,22.69089,88.37404
Palwal,IN,AS,28.14469,77.32546
Pallāvaram,IN,AS,12.96796,80.15025
Pāli,IN,AS,25.77276,73.32335
Palakkad,IN,AS,10.77319,76.65366
Pālanpur,IN,AS,24.17128,72.43827
Dharashiv,IN,AS,18.18158,76.03889
Orai,IN,AS,25.99023,79.45334
Ongole,IN,AS,15.50357,80.04454
Nowrangapur,IN,AS,19.23114,82.54826
Nagaon,IN,AS,26.35,92.66667
Nizāmābād,IN,AS,18.67154,78.0988
Neyveli,IN,AS,11.60877,79.4994
New Delhi,IN,AS,28.62137,77.2148
Nellore,IN,AS,14.44992,79.98697
Navsari,IN,AS,20.94237,72.92467
Navadwīp,IN,AS,23.4067,88.36861
Nashik,IN,AS,19.99727,73.79096
Narela,IN,AS,28.85267,77.09288
Narasaraopet,IN,AS,16.23488,80.04927
Nāngloi Jāt,IN,AS,28.67957,77.06799
Nandyāl,IN,AS,15.47799,78.4836
Nandurbar,IN,AS,21.36671,74.24051
Nanded,IN,AS,19.16023,77.31497
Nalgonda,IN,AS,17.05439,79.26707
Najafgarh,IN,AS,28.60922,76.97982
Naihāti,IN,AS,22.89396,88.41521
Nagpur,IN,AS,21.14631,79.08491
Nāgercoil,IN,AS,8.17899,77.43227
Nagda,IN,AS,23.45834,75.41759
Nāgaur,IN,AS,27.20201,73.73394
Nagapattinam,IN,AS,10.76377,79.84313
Nadiād,IN,AS,22.69385,72.86157
Mysuru,IN,AS,12.29791,76.63925
Muzaffarpur,IN,AS,26.12259,85.39055
Muzaffarnagar,IN,AS,29.47091,77.70332
Murwāra,IN,AS,23.83776,80.39405
Munger,IN,AS,25.37459,86.47455
Muktsar,IN,AS,30.47426,74.5166
Mothīhāri,IN,AS,26.64862,84.91656
Morena,IN,AS,26.49892,77.99534
Morvi,IN,AS,22.81731,70.8377
Morādābād,IN,AS,28.83893,78.77684
Moga,IN,AS,30.81383,75.16878
Mirzāpur,IN,AS,25.1449,82.56534
Miryalaguda,IN,AS,16.8722,79.56247
Meerut,IN,AS,28.98002,77.70636
Medinīpur,IN,AS,22.42114,87.32257
Mau,IN,AS,25.94167,83.56111
Mathura,IN,AS,27.5035,77.67215
Mormugao,IN,AS,15.38914,73.81491
Mangaluru,IN,AS,12.91723,74.85603
Mangalagiri,IN,AS,16.43083,80.56815
Mandya,IN,AS,12.5223,76.89746
Mandsaur,IN,AS,24.07184,75.06986
Māler Kotla,IN,AS,30.5309,75.87949
Malegaon,IN,AS,20.54966,74.53462
Malappuram,IN,AS,11.04199,76.08154
Mahesāna,IN,AS,23.59864,72.38472
Mahbūbnagar,IN,AS,16.74385,77.98597
Madurai,IN,AS,9.919,78.11953
Chennai,IN,AS,13.08784,80.27847
Madhyamgram,IN,AS,22.68944,88.44594
Madanapalle,IN,AS,13.5503,78.50288
Machilīpatnam,IN,AS,16.18747,81.13888
Ludhiana,IN,AS,30.91204,75.85379
Lucknow,IN,AS,26.83928,80.92313
Loni,IN,AS,28.75143,77.29023
Latur,IN,AS,18.39721,76.56784
Lalitpur,IN,AS,24.69007,78.41915
Lakhīmpur,IN,AS,27.94822,80.77935
Kurnool,IN,AS,15.82887,78.03602
Kumbakonam,IN,AS,10.96209,79.39124
Kulti,IN,AS,23.73166,86.84372
Kukatpally,IN,AS,17.48486,78.41376
Krishnanagar,IN,AS,23.40576,88.49073
Kozhikode,IN,AS,11.24802,75.7804
Kota,IN,AS,25.18254,75.83907
Korba,IN,AS,22.3458,82.69633
Kolhāpur,IN,AS,16.69563,74.23167
Kolār,IN,AS,13.13768,78.12999
Kishangarh,IN,AS,26.59006,74.85397
Kishanganj,IN,AS,26.10224,87.95534
Khurja,IN,AS,28.25382,77.85535
Khargone,IN,AS,21.82292,75.61394
Khardah,IN,AS,22.71861,88.37806
Kharagpur,IN,AS,22.33971,87.32501
Khanna,IN,AS,30.70547,76.22196
Khandwa,IN,AS,21.82427,76.35086
Khammam,IN,AS,17.24767,80.14368
Katihar,IN,AS,25.53852,87.57044
Kashipur,IN,AS,29.21399,78.95693
Karur,IN,AS,10.95771,78.08095
Karol Bāgh,IN,AS,28.65136,77.19072
Karnāl,IN,AS,29.69197,76.98448
Karīmnagar,IN,AS,18.43915,79.12856
Kāraikkudi,IN,AS,10.06615,78.76784
Kanpur,IN,AS,26.46523,80.34975
Kanhangad,IN,AS,12.30814,75.10632
Kanchipuram,IN,AS,12.83515,79.70006
Kāmārhāti,IN,AS,22.67111,88.37472
Kalyān,IN,AS,19.2437,73.13554
Kalol,IN,AS,23.24656,72.49508
Kākināda,IN,AS,16.96036,82.23809
Kaithal,IN,AS,29.80153,76.39959
Kānchrāpāra,IN,AS,22.95998,88.42849
Jūnāgadh,IN,AS,21.51966,70.45981
Jalandhar,IN,AS,31.32556,75.57917
Jorhat,IN,AS,26.75751,94.20306
Jodhpur,IN,AS,26.26841,73.00594
Jīnd,IN,AS,29.31577,76.31502
Jhunjhunūn,IN,AS,28.12559,75.39797
Jhānsi,IN,AS,25.45887,78.57994
Jetpur,IN,AS,21.75482,70.62347
Jaunpur,IN,AS,25.75356,82.68689
Jāmuria,IN,AS,23.70468,87.07872
Jamshedpur,IN,AS,22.80278,86.18545
Jamnagar,IN,AS,22.47292,70.06673
Jammu,IN,AS,32.73528,74.86167
Jamālpur,IN,AS,25.31258,86.48888
Jalpāiguri,IN,AS,26.51667,88.73333
Jālna,IN,AS,19.84102,75.88636
Jalgaon,IN,AS,21.00292,75.56602
Jaipur,IN,AS,26.91962,75.78781
Jahānābād,IN,AS,25.21368,84.9871
Jagtiāl,IN,AS,18.79473,78.91661
Jagdalpur,IN,AS,19.08136,82.02131
Jagādhri,IN,AS,30.16719,77.30367
Jabalpur,IN,AS,23.16697,79.95006
Itārsi,IN,AS,22.61477,77.76222
Malda,IN,AS,25.00447,88.14573
Indore,IN,AS,22.71792,75.8333
Imphal,IN,AS,24.80805,93.9442
Ichalkaranji,IN,AS,16.69117,74.46054
Hyderabad,IN,AS,17.38405,78.45636
Hugli,IN,AS,22.90877,88.39674
Hubballi,IN,AS,15.34776,75.13378
Hosūr,IN,AS,12.73647,77.83264
Hosapete,IN,AS,15.26954,76.3871
Hoshiārpur,IN,AS,31.53723,75.91269
Narmadapuram,IN,AS,22.74747,77.72736
Hisar,IN,AS,29.15394,75.72294
Hinganghāt,IN,AS,20.54875,78.83978
Hindupur,IN,AS,13.82807,77.49143
Hindaun,IN,AS,26.73411,77.03519
Hazāribāgh,IN,AS,23.99241,85.36162
Hāthras,IN,AS,27.59551,78.05201
Hassan,IN,AS,13.00715,76.0962
Haridwar,IN,AS,29.94791,78.16025
Hardoī,IN,AS,27.39491,80.13165
Hāpur,IN,AS,28.72985,77.78068
Howrah,IN,AS,22.57688,88.31857
Hanumāngarh,IN,AS,29.58182,74.32938
Hālīsahar,IN,AS,22.93218,88.41859
Haldwani,IN,AS,29.22254,79.5286
Hājīpur,IN,AS,25.68544,85.20981
Hābra,IN,AS,22.84202,88.65606
Gyānpur,IN,AS,25.33268,82.46637
Gwalior,IN,AS,26.22983,78.17337
Gurugram,IN,AS,28.4601,77.02635
Guntur,IN,AS,16.29974,80.45729
Guntakal,IN,AS,15.17112,77.36244
Guna,IN,AS,24.64691,77.3113
Kalaburagi,IN,AS,17.33583,76.83757
Gudivāda,IN,AS,16.43547,80.99555
Gosāba,IN,AS,22.16547,88.8007
Gorakhpur,IN,AS,29.44768,75.67206
Gorakhpur,IN,AS,26.76628,83.36889
Gondiā,IN,AS,21.46026,80.19205
Gondal,IN,AS,21.96074,70.80255
Gondā City,IN,AS,27.13181,81.95332
Godhra,IN,AS,22.77547,73.61488
Giridih,IN,AS,24.18622,86.30875
Ghazīpur,IN,AS,25.58333,83.58526
Ghāziābād,IN,AS,28.66535,77.43915
Gaya,IN,AS,24.79686,85.00385
Guwahati,IN,AS,26.1844,91.7458
Gangtok,IN,AS,27.32574,88.61216
Gangavati,IN,AS,15.4313,76.52933
Gangāpur,IN,AS,26.47249,76.71744
Sri Ganganagar,IN,AS,29.92009,73.87496
Gandhinagar,IN,AS,23.21667,72.68333
Gāndhīdhām,IN,AS,23.08333,70.13333
Gadag,IN,AS,15.42977,75.62971
Firozpur,IN,AS,30.92574,74.61311
Fīrozābād,IN,AS,27.15092,78.39781
Fatehpur,IN,AS,25.92774,80.81266
Farrukhābād,IN,AS,27.39134,79.5793
Faridabad,IN,AS,28.41124,77.31316
Fyzābād,IN,AS,26.77549,82.15018
Etāwah,IN,AS,26.77615,79.02133
Erode,IN,AS,11.3428,77.72741
Eluru,IN,AS,16.71311,81.10437
Durgapur,IN,AS,23.51583,87.30801
Durg,IN,AS,21.19147,81.27619
Dam Dam,IN,AS,22.63341,88.42286
Dombivali,IN,AS,19.21667,73.08333
Deesa,IN,AS,24.25612,72.17928
Dindigul,IN,AS,10.36896,77.98036
Dimāpur,IN,AS,25.91174,93.7217
Dibrugarh,IN,AS,27.47989,94.90837
Dhule,IN,AS,20.9013,74.77737
Dhaulpur,IN,AS,26.69286,77.87968
Dharmavaram,IN,AS,14.41435,77.72035
Dhanbad,IN,AS,23.79759,86.42992
Dhamtari,IN,AS,20.70718,81.54874
Dewas,IN,AS,22.96585,76.05526
Deoria,IN,AS,26.50167,83.77936
Deoghar,IN,AS,24.48983,86.69902
Delhi Cantonment,IN,AS,28.6,77.13333
Delhi,IN,AS,28.65195,77.23149
Dehradun,IN,AS,30.32443,78.03392
Davangere,IN,AS,14.46693,75.92694
Datia,IN,AS,25.67312,78.45908
Dārjiling,IN,AS,27.03333,88.26667
Darbhanga,IN,AS,26.15216,85.89707
Dinapore,IN,AS,25.63705,85.04794
Damoh,IN,AS,23.83312,79.4419
Dohad,IN,AS,22.83283,74.25986
Cuttack,IN,AS,20.46497,85.87927
Kadapa,IN,AS,14.47995,78.82346
Cuddalore,IN,AS,11.75617,79.76693
Coimbatore,IN,AS,11.00555,76.96612
Kochi,IN,AS,9.93988,76.26022
Chūru,IN,AS,28.30415,74.96718
Chittoor,IN,AS,13.21055,79.0956
Chittorgarh,IN,AS,24.88963,74.62403
Chitradurga,IN,AS,14.22262,76.40038
Chilakalūrupet,IN,AS,16.08987,80.16705
Chikmagalūr,IN,AS,13.32231,75.774
Chhindwāra,IN,AS,22.05697,78.93958
Chhatarpur,IN,AS,24.9177,79.58871
Chāpra,IN,AS,25.78031,84.74709
Chas,IN,AS,23.63556,86.16712
Chānda,IN,AS,19.95076,79.29523
Chandigarh,IN,AS,30.73629,76.7884
Chanduasi,IN,AS,28.45178,78.78277
Chandannagar,IN,AS,22.86225,88.36796
Kolkata,IN,AS,22.56263,88.36304
Buxar,IN,AS,25.57548,83.98043
Burhānpur,IN,AS,21.30868,76.23026
Būndi,IN,AS,25.43855,75.63735
Bulandshahr,IN,AS,28.40392,77.85773
Budaun,IN,AS,28.03811,79.12668
Brahmapur,IN,AS,19.31151,84.7929
Botad,IN,AS,22.16917,71.66671
Borivli,IN,AS,19.23496,72.85976
Mumbai,IN,AS,19.07283,72.88261
Bokāro,IN,AS,23.66934,86.15161
Beed,IN,AS,18.98921,75.75634
Bilimora,IN,AS,20.76957,72.96134
Bilāspur,IN,AS,22.08005,82.15543
Bikaner,IN,AS,28.01762,73.31495
Vijayapura,IN,AS,16.82442,75.71537
Bihār Sharīf,IN,AS,25.20084,85.52389
Bidar,IN,AS,17.90802,77.51524
Bhusawal,IN,AS,21.04365,75.78506
Bhuj,IN,AS,23.25397,69.66928
Bhubaneswar,IN,AS,20.27241,85.83385
Bhopal,IN,AS,23.25469,77.40289
Bhiwāni,IN,AS,28.79304,76.13968
Bhiwandi,IN,AS,19.30023,73.05881
Bhind,IN,AS,26.56671,78.78728
Bhimavaram,IN,AS,16.54078,81.52322
Bhilwara,IN,AS,25.34707,74.64081
Bhilai,IN,AS,21.20919,81.4285
Bhetia,IN,AS,22.79321,86.14098
Bhayandar,IN,AS,19.30157,72.85107
Bhavnagar,IN,AS,21.76287,72.15331
Bhātpāra,IN,AS,22.86643,88.40113
Bathinda,IN,AS,30.20747,74.93893
Bharūch,IN,AS,21.69482,72.9805
Bharatpur,IN,AS,27.21731,77.49009
Bhāgalpur,IN,AS,25.24446,86.97183
Bhadreswar,IN,AS,22.82449,88.33841
Bhadrāvati,IN,AS,13.84846,75.70502
Bhadrak,IN,AS,21.05447,86.5156
Betūl,IN,AS,21.90056,77.90229
Bettiah,IN,AS,26.80229,84.50311
Ballari,IN,AS,15.14205,76.92398
Belagavi,IN,AS,15.85212,74.50447
Begusarai,IN,AS,25.41853,86.13389
Beāwar,IN,AS,26.10119,74.32028
Batāla,IN,AS,31.80921,75.20294
Bastī,IN,AS,26.78817,82.71617
Barshi,IN,AS,18.23454,75.69275
Barnāla,IN,AS,30.37451,75.5487
Baripāda,IN,AS,21.93458,86.72852
Bareilly,IN,AS,28.36678,79.43167
Barddhamān,IN,AS,23.25572,87.85691
Bārāsat,IN,AS,22.72154,88.48198
Baranagar,IN,AS,22.64132,88.37727
Bārān,IN,AS,25.1,76.51667
Bārākpur,IN,AS,22.76602,88.36336
Bānswāra,IN,AS,23.54109,74.4425
Bānsbāria,IN,AS,22.95387,88.40098
Bānkura,IN,AS,23.23241,87.0716
Bangaon,IN,AS,23.04553,88.83084
Bengaluru,IN,AS,12.97194,77.59369
Bānda,IN,AS,25.47758,80.33491
Bālurghāt,IN,AS,25.22099,88.77732
Bāli,IN,AS,22.64859,88.34115
Balasore,IN,AS,21.49266,86.93348
Baidyabāti,IN,AS,22.78498,88.32586
Bahraigh,IN,AS,27.57429,81.59474
Baharampur,IN,AS,24.10473,88.25155
Bahadurgarh,IN,AS,28.69287,76.93555
Bagalkot,IN,AS,16.18673,75.69614
Bagaha,IN,AS,27.09918,84.09003
Badlapur,IN,AS,19.15516,73.26553
Azamgarh,IN,AS,26.06832,83.18358
Avadi,IN,AS,13.1147,80.10981
Aurangābād,IN,AS,24.75204,84.3742
Aurangabad,IN,AS,19.87757,75.34226
Āsansol,IN,AS,23.68333,86.98333
Arrah,IN,AS,25.55629,84.66335
Anantnag,IN,AS,33.73068,75.15418
Anantapur,IN,AS,14.67784,77.60813
Anand,IN,AS,22.55251,72.9552
Amroha,IN,AS,28.90314,78.46984
Amritsar,IN,AS,31.62234,74.87534
Amreli,IN,AS,21.59983,71.21169
Amravati,IN,AS,20.93333,77.75
Ambur,IN,AS,12.79163,78.71644
Ambikāpur,IN,AS,23.11892,83.19537
Ambattur,IN,AS,13.09818,80.16152
Ambāla,IN,AS,30.36099,76.79782
Ambarnath,IN,AS,19.2,73.16667
Alwar,IN,AS,27.56246,76.625
Alappuzha,IN,AS,9.49004,76.3264
Prayagraj,IN,AS,25.44478,81.84322
Alīgarh,IN,AS,27.88145,78.07464
